[{"name": "\uc138\ube0c\ub780\uc758\uc6d0", "lat": "38.44752972816913", "lng": "128.45480267493681", "url": "/info/%EC%84%B8%EB%B8%8C%EB%9E%80%EC%9D%98%EC%9B%90-%EA%B0%95%EC%9B%90%EB%8F%84-%EA%B3%A0%EC%84%B1%EA%B5%B0-%EA%B1%B0%EC%A7%84%EC%9D%8D/", "workingTime": ["-", "08:30~18:00", "08:30~18:00", "08:30~18:00", "08:30~18:00", "08:30~18:00", "08:30~14:00", "-"], "course": ["\ub0b4\uacfc", "\uc2e0\uacbd\uc678\uacfc", "\uc548\uacfc", "\uc678\uacfc", "\uc774\ube44\uc778\ud6c4\uacfc", "\uc7ac\ud65c\uc758\ud559\uacfc", "\uc815\ud615\uc678\uacfc", "\ud53c\ubd80\uacfc"]}, {"name": "\ubc15\ud76c\ud64d\uc758\uc6d0", "lat": "38.447129415437246", "lng": "128.45570182244043", "url": "/info/%EB%B0%95%ED%9D%AC%ED%99%8D%EC%9D%98%EC%9B%90-%EA%B0%95%EC%9B%90%EB%8F%84-%EA%B3%A0%EC%84%B1%EA%B5%B0-%EA%B1%B0%EC%A7%84%EC%9D%8D/", "workingTime": ["-", "08:30~18:00", "08:30~18:00", "08:30~18:00", "08:30~18:00", "08:30~18:00", "08:30~13:00", "-"], "course": ["\uac00\uc815\uc758\ud559\uacfc", "\ub0b4\uacfc", "\uc2e0\uacbd\uacfc", "\uc601\uc0c1\uc758\ud559\uacfc", "\uc751\uae09\uc758\ud559\uacfc", "\uc815\ud615\uc678\uacfc"]}, {"name": "\uace0\uc131\uc6b0\ub9ac\ud55c\uc758\uc6d0", "lat": "38.44492010470127", "lng": "128.45419741485546", "url": "/info/%EA%B3%A0%EC%84%B1%EC%9A%B0%EB%A6%AC%ED%95%9C%EC%9D%98%EC%9B%90-%EA%B0%95%EC%9B%90%EB%8F%84-%EA%B3%A0%EC%84%B1%EA%B5%B0-%EA%B1%B0%EC%A7%84%EC%9D%8D/", "workingTime": ["-", "09:00~18:00", "09:00~18:00", "09:00~18:00", "09:00~18:00", "09:00~18:00", "09:00~13:00", "-"], "course": ["\ud55c\ubc29\ub0b4\uacfc"]}, {"name": "\uc870\uc740\ub0b4\uacfc\uc758\uc6d0", "lat": "38.4472578507", "lng": "128.4549346682", "url": "/info/%EC%A1%B0%EC%9D%80%EB%82%B4%EA%B3%BC%EC%9D%98%EC%9B%90-%EA%B0%95%EC%9B%90%EB%8F%84-%EA%B3%A0%EC%84%B1%EA%B5%B0-%EA%B1%B0%EC%A7%84%EC%9D%8D/", "workingTime": ["-", "08:30~16:00", "08:30~18:30", "08:30~18:30", "08:30~18:30", "08:30~18:30", "08:30~13:00", "-"], "course": ["\ub0b4\uacfc", "\ube44\ub1e8\uc758\ud559\uacfc", "\uc0b0\ubd80\uc778\uacfc", "\uc18c\uc544\uccad\uc18c\ub144\uacfc", "\uc678\uacfc", "\uc774\ube44\uc778\ud6c4\uacfc", "\uc815\ud615\uc678\uacfc"]}, {"name": "\uc1a1\uc815\ubcf4\uac74\uc9c4\ub8cc\uc18c", "lat": "38.441126012288876", "lng": "128.42348869023942", "url": "/info/%EC%86%A1%EC%A0%95%EB%B3%B4%EA%B1%B4%EC%A7%84%EB%A3%8C%EC%86%8C-%EA%B0%95%EC%9B%90%EB%8F%84-%EA%B3%A0%EC%84%B1%EA%B5%B0-%EA%B1%B0%EC%A7%84%EC%9D%8D/", "workingTime": ["-", "09:00~18:00", "09:00~18:00", "09:00~18:00", "09:00~18:00", "09:00~18:00", "-", "-"], "course": [""]}, {"name": "\uace0\uc131\uc88b\uc740\uce58\uacfc\uc758\uc6d0", "lat": "38.447385398444446", "lng": "128.45471875866764", "url": "/info/%EA%B3%A0%EC%84%B1%EC%A2%8B%EC%9D%80%EC%B9%98%EA%B3%BC%EC%9D%98%EC%9B%90-%EA%B0%95%EC%9B%90%EB%8F%84-%EA%B3%A0%EC%84%B1%EA%B5%B0-%EA%B1%B0%EC%A7%84%EC%9D%8D/", "workingTime": ["-", "09:00~18:00", "09:00~18:00", "09:00~18:00", "09:00~18:00", "09:00~18:00", "-", "-"], "course": ["\uce58\uacfc"]}, {"name": "\ud574\ud765\ud55c\uc758\uc6d0", "lat": "38.44613598547428", "lng": "128.4546478841047", "url": "/info/%ED%95%B4%ED%9D%A5%ED%95%9C%EC%9D%98%EC%9B%90-%EA%B0%95%EC%9B%90%EB%8F%84-%EA%B3%A0%EC%84%B1%EA%B5%B0-%EA%B1%B0%EC%A7%84%EC%9D%8D/", "workingTime": ["-", "09:00~18:00", "09:00~18:00", "09:00~18:00", "09:00~18:00", "09:00~18:00", "09:00~13:00", "-"], "course": ["\ud55c\ubc29\ub0b4\uacfc"]}]