[{"name": "\uadfc\ub355\uc138\ub780\uc758\uc6d0", "lat": "37.380279747079804", "lng": "129.22583351401303", "url": "/info/%EA%B7%BC%EB%8D%95%EC%84%B8%EB%9E%80%EC%9D%98%EC%9B%90-%EA%B0%95%EC%9B%90%EB%8F%84-%EC%82%BC%EC%B2%99%EC%8B%9C-%EA%B7%BC%EB%8D%95%EB%A9%B4/", "workingTime": ["-", "09:00~17:30", "09:00~17:30", "09:00~17:30", "09:00~15:00", "09:00~17:30", "09:00~13:00", "-"], "course": ["\ub0b4\uacfc", "\uc18c\uc544\uccad\uc18c\ub144\uacfc", "\uc774\ube44\uc778\ud6c4\uacfc", "\uc815\ud615\uc678\uacfc", "\ud53c\ubd80\uacfc"]}, {"name": "\uadfc\ub355\ud558\ub098\uce58\uacfc\uc758\uc6d0", "lat": "37.380513309225336", "lng": "129.226251322266", "url": "/info/%EA%B7%BC%EB%8D%95%ED%95%98%EB%82%98%EC%B9%98%EA%B3%BC%EC%9D%98%EC%9B%90-%EA%B0%95%EC%9B%90%EB%8F%84-%EC%82%BC%EC%B2%99%EC%8B%9C-%EA%B7%BC%EB%8D%95%EB%A9%B4/", "workingTime": ["-", "09:00~17:00", "09:00~17:00", "09:00~17:00", "09:00~17:00", "09:00~17:00", "09:00~12:00", "-"], "course": ["\uce58\uacfc"]}, {"name": "\uc2dc\ubbfc\ud55c\uc758\uc6d0", "lat": "37.38054717677293", "lng": "129.22610635049844", "url": "/info/%EC%8B%9C%EB%AF%BC%ED%95%9C%EC%9D%98%EC%9B%90-%EA%B0%95%EC%9B%90%EB%8F%84-%EC%82%BC%EC%B2%99%EC%8B%9C-%EA%B7%BC%EB%8D%95%EB%A9%B4/", "workingTime": ["-", "09:00~17:30", "09:00~17:30", "09:00~17:30", "09:00~17:30", "09:00~17:30", "09:00~13:00", "-"], "course": ["\uce68\uad6c\uacfc", "\ud55c\ubc29\ub0b4\uacfc", "\ud55c\ubc29\ubd80\uc778\uacfc", "\ud55c\ubc29\uc18c\uc544\uacfc", "\ud55c\ubc29\uc548\uc774\ube44\uc778\ud6c4\ud53c\ubd80\uacfc"]}, {"name": "\uadfc\ub355\ubcf4\uac74\uc9c0\uc18c", "lat": "37.380448687668434", "lng": "129.2283572313618", "url": "/info/%EA%B7%BC%EB%8D%95%EB%B3%B4%EA%B1%B4%EC%A7%80%EC%86%8C-%EA%B0%95%EC%9B%90%EB%8F%84-%EC%82%BC%EC%B2%99%EC%8B%9C-%EA%B7%BC%EB%8D%95%EB%A9%B4/", "workingTime": ["-", "09:00~18:00", "09:00~18:00", "09:00~18:00", "09:00~18:00", "09:00~18:00", "-", "-"], "course": ["\ub0b4\uacfc"]}, {"name": "\ub9e4\uc6d0\ubcf4\uac74\uc9c4\ub8cc\uc18c", "lat": "37.304497538428166", "lng": "129.27284838866876", "url": "/info/%EB%A7%A4%EC%9B%90%EB%B3%B4%EA%B1%B4%EC%A7%84%EB%A3%8C%EC%86%8C-%EA%B0%95%EC%9B%90%EB%8F%84-%EC%82%BC%EC%B2%99%EC%8B%9C-%EA%B7%BC%EB%8D%95%EB%A9%B4/", "workingTime": ["-", "09:00~18:00", "09:00~18:00", "09:00~18:00", "09:00~18:00", "09:00~18:00", "-", "-"], "course": [""]}, {"name": "\uc7a5\ud638\ubcf4\uac74\uc9c4\ub8cc\uc18c", "lat": "37.28453656182745", "lng": "129.31323732175758", "url": "/info/%EC%9E%A5%ED%98%B8%EB%B3%B4%EA%B1%B4%EC%A7%84%EB%A3%8C%EC%86%8C-%EA%B0%95%EC%9B%90%EB%8F%84-%EC%82%BC%EC%B2%99%EC%8B%9C-%EA%B7%BC%EB%8D%95%EB%A9%B4/", "workingTime": ["-", "09:00~18:00", "09:00~18:00", "09:00~18:00", "09:00~18:00", "09:00~18:00", "-", "-"], "course": [""]}]