[{"name": "\ucd5c\ub0b4\uacfc\uc758\uc6d0", "lat": "38.202676111259535", "lng": "128.59078732351278", "url": "/info/%EC%B5%9C%EB%82%B4%EA%B3%BC%EC%9D%98%EC%9B%90-%EA%B0%95%EC%9B%90%EB%8F%84-%EC%86%8D%EC%B4%88%EC%8B%9C-%EA%B8%88%ED%98%B8%EB%8F%99/", "workingTime": ["-", "08:00~17:00", "08:00~17:00", "08:00~17:00", "08:00~17:00", "08:00~17:00", "08:00~12:00", "-"], "course": ["\ub0b4\uacfc"]}, {"name": "\ubca0\uc2a4\ud2b8\uc815\ud615\uc678\uacfc\uc758\uc6d0", "lat": "38.2027856977497", "lng": "128.589986037981", "url": "/info/%EB%B2%A0%EC%8A%A4%ED%8A%B8%EC%A0%95%ED%98%95%EC%99%B8%EA%B3%BC%EC%9D%98%EC%9B%90-%EA%B0%95%EC%9B%90%EB%8F%84-%EC%86%8D%EC%B4%88%EC%8B%9C-%EA%B8%88%ED%98%B8%EB%8F%99/", "workingTime": ["-", "08:30~18:30", "08:30~18:30", "08:30~18:30", "08:30~18:30", "08:30~18:30", "08:30~13:30", "-"], "course": ["\ub9c8\ucde8\ud1b5\uc99d\uc758\ud559\uacfc", "\uc2e0\uacbd\uc678\uacfc", "\uc815\ud615\uc678\uacfc"]}, {"name": "\uae40\ubd09\uc218\uc678\uacfc\uc758\uc6d0", "lat": "38.2022293192389", "lng": "128.590301107962", "url": "/info/%EA%B9%80%EB%B4%89%EC%88%98%EC%99%B8%EA%B3%BC%EC%9D%98%EC%9B%90-%EA%B0%95%EC%9B%90%EB%8F%84-%EC%86%8D%EC%B4%88%EC%8B%9C-%EA%B8%88%ED%98%B8%EB%8F%99/", "workingTime": ["-", "09:00~17:30", "09:00~17:30", "09:00~17:30", "09:00~17:30", "09:00~17:30", "09:00~12:00", "-"], "course": ["\uc678\uacfc"]}, {"name": "\uba85\ud55c\uc758\uc6d0", "lat": "38.202503125212885", "lng": "128.5903118240381", "url": "/info/%EB%AA%85%ED%95%9C%EC%9D%98%EC%9B%90-%EA%B0%95%EC%9B%90%EB%8F%84-%EC%86%8D%EC%B4%88%EC%8B%9C-%EA%B8%88%ED%98%B8%EB%8F%99/", "workingTime": ["-", "09:30~17:30", "09:30~17:30", "09:30~17:30", "09:30~17:30", "09:30~17:30", "09:30~13:00", "-"], "course": ["\uce68\uad6c\uacfc", "\ud55c\ubc29\ub0b4\uacfc"]}, {"name": "\uc815\uc9c4\uc6a9\uce58\uacfc\uc758\uc6d0", "lat": "38.202439552102085", "lng": "128.5888323689529", "url": "/info/%EC%A0%95%EC%A7%84%EC%9A%A9%EC%B9%98%EA%B3%BC%EC%9D%98%EC%9B%90-%EA%B0%95%EC%9B%90%EB%8F%84-%EC%86%8D%EC%B4%88%EC%8B%9C-%EA%B8%88%ED%98%B8%EB%8F%99/", "workingTime": ["-", "09:00~18:00", "09:00~18:00", "09:00~18:00", "09:00~18:00", "09:00~18:00", "-", "-"], "course": ["\uce58\uacfc"]}, {"name": "\ud64d\uc81c\ud55c\uc758\uc6d0", "lat": "38.20439114635811", "lng": "128.59189663979436", "url": "/info/%ED%99%8D%EC%A0%9C%ED%95%9C%EC%9D%98%EC%9B%90-%EA%B0%95%EC%9B%90%EB%8F%84-%EC%86%8D%EC%B4%88%EC%8B%9C-%EA%B8%88%ED%98%B8%EB%8F%99/", "workingTime": ["00:00~00:00(\uc5f0\ub77d\ud6c4\ubc29\ubb38\uc694\ub9dd)", "09:00~18:00", "09:00~18:00", "09:00~18:00", "09:00~16:00", "09:00~18:00", "09:00~13:00", "00:00~00:00"], "course": ["\uc0ac\uc0c1\uccb4\uc9c8\uacfc", "\uce68\uad6c\uacfc", "\ud55c\ubc29\ub0b4\uacfc", "\ud55c\ubc29\ubd80\uc778\uacfc", "\ud55c\ubc29\uc18c\uc544\uacfc", "\ud55c\ubc29\uc2e0\uacbd\uc815\uc2e0\uacfc", "\ud55c\ubc29\uc548\uc774\ube44\uc778\ud6c4\ud53c\ubd80\uacfc", "\ud55c\ubc29\uc751\uae09\uacfc", "\ud55c\ubc29\uc7ac\ud65c\uc758\ud559\uacfc"]}, {"name": "\uc5f0\uc138\ud544\uce58\uacfc\uc758\uc6d0", "lat": "38.202676111259535", "lng": "128.59078732351278", "url": "/info/%EC%97%B0%EC%84%B8%ED%95%84%EC%B9%98%EA%B3%BC%EC%9D%98%EC%9B%90-%EA%B0%95%EC%9B%90%EB%8F%84-%EC%86%8D%EC%B4%88%EC%8B%9C-%EA%B8%88%ED%98%B8%EB%8F%99/", "workingTime": ["-", "09:30~18:00", "09:30~18:00", "09:30~18:00", "09:30~18:00", "09:30~18:00", "09:30~12:00", "-"], "course": ["\uce58\uacfc"]}, {"name": "\ubbf8\uce58\uacfc\uc758\uc6d0", "lat": "38.20250461007616", "lng": "128.59041830806498", "url": "/info/%EB%AF%B8%EC%B9%98%EA%B3%BC%EC%9D%98%EC%9B%90-%EA%B0%95%EC%9B%90%EB%8F%84-%EC%86%8D%EC%B4%88%EC%8B%9C-%EA%B8%88%ED%98%B8%EB%8F%99/", "workingTime": ["-", "09:30~18:30", "09:30~18:30", "09:30~19:30", "09:30~18:30", "09:30~18:30", "09:30~15:00", "-"], "course": ["\uc18c\uc544\uce58\uacfc", "\uc608\ubc29\uce58\uacfc", "\uce58\uacfc\uad50\uc815\uacfc", "\uce58\uacfc\ubcf4\uc874\uacfc", "\uce58\uacfc\ubcf4\ucca0\uacfc", "\uce58\uc8fc\uacfc"]}, {"name": "\uc218\uce58\uacfc\uc758\uc6d0", "lat": "38.2025122939508", "lng": "128.5890485661235", "url": "/info/%EC%88%98%EC%B9%98%EA%B3%BC%EC%9D%98%EC%9B%90-%EA%B0%95%EC%9B%90%EB%8F%84-%EC%86%8D%EC%B4%88%EC%8B%9C-%EA%B8%88%ED%98%B8%EB%8F%99/", "workingTime": ["-", "09:30~18:00", "09:30~18:00", "09:30~18:00", "09:30~18:00", "09:30~18:00", "09:30~13:00", "-"], "course": ["\uad6c\uac15\ub0b4\uacfc", "\uad6c\uac15\ubcd1\ub9ac\uacfc", "\uad6c\uac15\uc545\uc548\uba74\ubc29\uc0ac\uc120\uacfc", "\uad6c\uac15\uc545\uc548\uba74\uc678\uacfc", "\uc18c\uc544\uce58\uacfc", "\uc608\ubc29\uce58\uacfc", "\uce58\uacfc\uad50\uc815\uacfc", "\uce58\uacfc\ubcf4\uc874\uacfc", "\uce58\uacfc\ubcf4\ucca0\uacfc", "\uce58\uc8fc\uacfc"]}, {"name": "\uc11c\uc6b8\ud53c\ubd80\uacfc\uc758\uc6d0", "lat": "38.20278425686693", "lng": "128.5899860066447", "url": "/info/%EC%84%9C%EC%9A%B8%ED%94%BC%EB%B6%80%EA%B3%BC%EC%9D%98%EC%9B%90-%EA%B0%95%EC%9B%90%EB%8F%84-%EC%86%8D%EC%B4%88%EC%8B%9C-%EA%B8%88%ED%98%B8%EB%8F%99/", "workingTime": ["-", "09:30~18:00", "09:30~18:00", "09:30~18:00", "09:30~18:00", "09:30~18:00", "-", "-"], "course": ["\ud53c\ubd80\uacfc"]}, {"name": "\uc870\uad00\uc2dd\uc548\uacfc\uc758\uc6d0", "lat": "38.20213676434522", "lng": "128.5895667743369", "url": "/info/%EC%A1%B0%EA%B4%80%EC%8B%9D%EC%95%88%EA%B3%BC%EC%9D%98%EC%9B%90-%EA%B0%95%EC%9B%90%EB%8F%84-%EC%86%8D%EC%B4%88%EC%8B%9C-%EA%B8%88%ED%98%B8%EB%8F%99/", "workingTime": ["-", "09:30~17:30", "09:30~17:30", "09:30~17:30", "09:30~17:30", "09:30~17:30", "09:30~11:30", "-"], "course": ["\uc548\uacfc"]}, {"name": "\uc11c\uc6b8\uc601\uc0c1\uc758\ud559\uacfc\uc758\uc6d0", "lat": "38.2021633394", "lng": "128.5876756636", "url": "/info/%EC%84%9C%EC%9A%B8%EC%98%81%EC%83%81%EC%9D%98%ED%95%99%EA%B3%BC%EC%9D%98%EC%9B%90-%EA%B0%95%EC%9B%90%EB%8F%84-%EC%86%8D%EC%B4%88%EC%8B%9C-%EA%B8%88%ED%98%B8%EB%8F%99/", "workingTime": ["-", "09:00~18:00", "09:00~18:00", "09:00~12:00", "09:00~18:00", "09:00~18:00", "-", "-"], "course": ["\uc601\uc0c1\uc758\ud559\uacfc"]}]