[{"name": "\ud3c9\ucc3d\uad70\ubcf4\uac74\uc758\ub8cc\uc6d0", "lat": "37.360577433652736", "lng": "128.3890508672411", "url": "/info/%ED%8F%89%EC%B0%BD%EA%B5%B0%EB%B3%B4%EA%B1%B4%EC%9D%98%EB%A3%8C%EC%9B%90-%EA%B0%95%EC%9B%90%EB%8F%84-%ED%8F%89%EC%B0%BD%EA%B5%B0-%ED%8F%89%EC%B0%BD%EC%9D%8D/", "workingTime": ["-", "09:00~18:00", "09:00~18:00", "09:00~18:00", "09:00~18:00", "09:00~18:00", "-", "-"], "course": ["\uc18c\uc544\uccad\uc18c\ub144\uacfc", "\uc678\uacfc", "\uc791\uc5c5\ud658\uacbd\uc758\ud559\uacfc", "\uc815\uc2e0\uac74\uac15\uc758\ud559\uacfc", "\uce58\uacfc"]}, {"name": "\uac74\uc601\ud55c\uc758\uc6d0", "lat": "37.367725000000000", "lng": "128.393186111111106", "url": "/info/%EA%B1%B4%EC%98%81%ED%95%9C%EC%9D%98%EC%9B%90-%EA%B0%95%EC%9B%90%EB%8F%84-%ED%8F%89%EC%B0%BD%EA%B5%B0-%ED%8F%89%EC%B0%BD%EC%9D%8D/", "workingTime": ["-", "08:00~16:00", "08:00~16:00", "08:00~16:00", "08:00~16:00", "08:00~16:00", "08:00~12:00", "-"], "course": ["\uce68\uad6c\uacfc", "\ud55c\ubc29\ub0b4\uacfc", "\ud55c\ubc29\ubd80\uc778\uacfc", "\ud55c\ubc29\uc18c\uc544\uacfc", "\ud55c\ubc29\uc7ac\ud65c\uc758\ud559\uacfc"]}, {"name": "\uc18c\ub9dd\uc758\uc6d0", "lat": "37.367802475530134", "lng": "128.3961464381375", "url": "/info/%EC%86%8C%EB%A7%9D%EC%9D%98%EC%9B%90-%EA%B0%95%EC%9B%90%EB%8F%84-%ED%8F%89%EC%B0%BD%EA%B5%B0-%ED%8F%89%EC%B0%BD%EC%9D%8D/", "workingTime": ["-", "08:30~18:00", "08:30~18:00", "08:30~18:00", "08:30~18:00", "08:30~18:00", "08:30~13:00", "-"], "course": ["\ub0b4\uacfc", "\uc18c\uc544\uccad\uc18c\ub144\uacfc", "\uc548\uacfc", "\uc601\uc0c1\uc758\ud559\uacfc", "\uc678\uacfc", "\uc815\ud615\uc678\uacfc", "\ud53c\ubd80\uacfc"]}, {"name": "\ud3c9\ucc3d\uce58\uacfc\uc758\uc6d0", "lat": "37.3683364290712", "lng": "128.390182016092", "url": "/info/%ED%8F%89%EC%B0%BD%EC%B9%98%EA%B3%BC%EC%9D%98%EC%9B%90-%EA%B0%95%EC%9B%90%EB%8F%84-%ED%8F%89%EC%B0%BD%EA%B5%B0-%ED%8F%89%EC%B0%BD%EC%9D%8D/", "workingTime": ["-", "09:00~18:00", "09:00~18:00", "09:00~18:00", "09:00~18:00", "09:00~18:00", "09:00~13:00", "-"], "course": ["\uce58\uacfc"]}, {"name": "\uc6b0\ub9ac\ub4e4\uce58\uacfc\uc758\uc6d0", "lat": "37.36862590452753", "lng": "128.39575715175155", "url": "/info/%EC%9A%B0%EB%A6%AC%EB%93%A4%EC%B9%98%EA%B3%BC%EC%9D%98%EC%9B%90-%EA%B0%95%EC%9B%90%EB%8F%84-%ED%8F%89%EC%B0%BD%EA%B5%B0-%ED%8F%89%EC%B0%BD%EC%9D%8D/", "workingTime": ["-", "09:00~18:00", "09:00~18:00", "14:00~18:00", "09:00~18:00", "09:00~18:00", "09:00~12:00", "-"], "course": ["\uce58\uacfc"]}, {"name": "\uc0bc\uc131\uc5f0\ud569\uc758\uc6d0", "lat": "37.36743853103531", "lng": "128.3919287682571", "url": "/info/%EC%82%BC%EC%84%B1%EC%97%B0%ED%95%A9%EC%9D%98%EC%9B%90-%EA%B0%95%EC%9B%90%EB%8F%84-%ED%8F%89%EC%B0%BD%EA%B5%B0-%ED%8F%89%EC%B0%BD%EC%9D%8D/", "workingTime": ["-", "08:00~18:00", "08:00~18:00", "08:00~18:00", "08:00~18:00", "08:00~18:00", "-", "-"], "course": ["\uac00\uc815\uc758\ud559\uacfc", "\ub0b4\uacfc", "\ub9c8\ucde8\ud1b5\uc99d\uc758\ud559\uacfc", "\uc678\uacfc", "\uc751\uae09\uc758\ud559\uacfc", "\uc815\ud615\uc678\uacfc", "\ud53c\ubd80\uacfc"]}, {"name": "\uace0\uae38\ubcf4\uac74\uc9c4\ub8cc\uc18c", "lat": "37.40457477253538", "lng": "128.45515998036478", "url": "/info/%EA%B3%A0%EA%B8%B8%EB%B3%B4%EA%B1%B4%EC%A7%84%EB%A3%8C%EC%86%8C-%EA%B0%95%EC%9B%90%EB%8F%84-%ED%8F%89%EC%B0%BD%EA%B5%B0-%ED%8F%89%EC%B0%BD%EC%9D%8D/", "workingTime": ["-", "09:00~18:00", "09:00~18:00", "09:00~18:00", "09:00~18:00", "09:00~18:00", "-", "-"], "course": [""]}, {"name": "\ub2e4\uc218\ubcf4\uac74\uc9c4\ub8cc\uc18c", "lat": "37.39553472142513", "lng": "128.36671752412246", "url": "/info/%EB%8B%A4%EC%88%98%EB%B3%B4%EA%B1%B4%EC%A7%84%EB%A3%8C%EC%86%8C-%EA%B0%95%EC%9B%90%EB%8F%84-%ED%8F%89%EC%B0%BD%EA%B5%B0-%ED%8F%89%EC%B0%BD%EC%9D%8D/", "workingTime": ["-", "09:00~18:00", "09:00~18:00", "09:00~18:00", "09:00~18:00", "09:00~18:00", "-", "-"], "course": [""]}, {"name": "\ub3c4\ub3c8\ubcf4\uac74\uc9c4\ub8cc\uc18c", "lat": "37.32487151483572", "lng": "128.37012214186763", "url": "/info/%EB%8F%84%EB%8F%88%EB%B3%B4%EA%B1%B4%EC%A7%84%EB%A3%8C%EC%86%8C-%EA%B0%95%EC%9B%90%EB%8F%84-%ED%8F%89%EC%B0%BD%EA%B5%B0-%ED%8F%89%EC%B0%BD%EC%9D%8D/", "workingTime": ["-", "09:00~18:00", "09:00~18:00", "09:00~18:00", "09:00~18:00", "09:00~18:00", "-", "-"], "course": [""]}, {"name": "\uc0c8\uc0d8\uc758\uc6d0", "lat": "37.3236456964", "lng": "128.3699245994", "url": "/info/%EC%83%88%EC%83%98%EC%9D%98%EC%9B%90-%EA%B0%95%EC%9B%90%EB%8F%84-%ED%8F%89%EC%B0%BD%EA%B5%B0-%ED%8F%89%EC%B0%BD%EC%9D%8D/", "workingTime": ["-", "09:00~17:00", "09:00~17:00", "09:00~17:00", "09:00~17:00", "09:00~17:00", "-", "-"], "course": ["\uac00\uc815\uc758\ud559\uacfc", "\ub0b4\uacfc", "\ub9c8\ucde8\ud1b5\uc99d\uc758\ud559\uacfc", "\ube44\ub1e8\uc758\ud559\uacfc", "\uc131\ud615\uc678\uacfc", "\uc18c\uc544\uccad\uc18c\ub144\uacfc", "\uc2e0\uacbd\uacfc", "\uc2e0\uacbd\uc678\uacfc", "\uc548\uacfc", "\uc601\uc0c1\uc758\ud559\uacfc", "\uc678\uacfc", "\uc774\ube44\uc778\ud6c4\uacfc", "\uc815\uc2e0\uac74\uac15\uc758\ud559\uacfc", "\uc815\ud615\uc678\uacfc", "\ud53c\ubd80\uacfc", "\ud749\ubd80\uc678\uacfc"]}, {"name": "\uc784\uc7ac\uc724\uce58\uacfc\uc758\uc6d0", "lat": "37.36768438512831", "lng": "128.393084726184", "url": "/info/%EC%9E%84%EC%9E%AC%EC%9C%A4%EC%B9%98%EA%B3%BC%EC%9D%98%EC%9B%90-%EA%B0%95%EC%9B%90%EB%8F%84-%ED%8F%89%EC%B0%BD%EA%B5%B0-%ED%8F%89%EC%B0%BD%EC%9D%8D/", "workingTime": ["-", "09:30~18:00", "09:30~18:00", "09:30~13:00", "09:30~18:00", "09:30~18:00", "09:30~13:00", "-"], "course": ["\uce58\uacfc"]}, {"name": "\ud3c9\ucc3d\uc758\uc6d0", "lat": "37.3681457811749", "lng": "128.39521545029822", "url": "/info/%ED%8F%89%EC%B0%BD%EC%9D%98%EC%9B%90-%EA%B0%95%EC%9B%90%EB%8F%84-%ED%8F%89%EC%B0%BD%EA%B5%B0-%ED%8F%89%EC%B0%BD%EC%9D%8D/", "workingTime": ["-", "08:30~18:00", "08:30~18:00", "08:30~13:00", "08:30~18:00", "08:30~18:00", "08:30~13:00", "-"], "course": ["\ube44\ub1e8\uc758\ud559\uacfc", "\uc18c\uc544\uccad\uc18c\ub144\uacfc", "\uc678\uacfc", "\uc815\ud615\uc678\uacfc"]}]