[{"name": "\ud1a0\uc131\ud55c\uc758\uc6d0", "lat": "38.25463904348911", "lng": "128.55931446294716", "url": "/info/%ED%86%A0%EC%84%B1%ED%95%9C%EC%9D%98%EC%9B%90-%EA%B0%95%EC%9B%90%EB%8F%84-%EA%B3%A0%EC%84%B1%EA%B5%B0-%ED%86%A0%EC%84%B1%EB%A9%B4/", "workingTime": ["-", "09:00~18:00", "09:00~18:00", "09:00~18:00", "09:00~18:00", "09:00~18:00", "09:00~13:00", "-"], "course": ["\uce68\uad6c\uacfc", "\ud55c\ubc29\ub0b4\uacfc", "\ud55c\ubc29\ubd80\uc778\uacfc", "\ud55c\ubc29\uc18c\uc544\uacfc", "\ud55c\ubc29\uc2e0\uacbd\uc815\uc2e0\uacfc", "\ud55c\ubc29\uc548\uc774\ube44\uc778\ud6c4\ud53c\ubd80\uacfc", "\ud55c\ubc29\uc7ac\ud65c\uc758\ud559\uacfc"]}, {"name": "\uc544\uc57c\uc9c4\ubcf4\uac74\uc9c4\ub8cc\uc18c", "lat": "38.2725172469569", "lng": "128.55563034250198", "url": "/info/%EC%95%84%EC%95%BC%EC%A7%84%EB%B3%B4%EA%B1%B4%EC%A7%84%EB%A3%8C%EC%86%8C-%EA%B0%95%EC%9B%90%EB%8F%84-%EA%B3%A0%EC%84%B1%EA%B5%B0-%ED%86%A0%EC%84%B1%EB%A9%B4/", "workingTime": ["-", "09:00~18:00", "09:00~18:00", "09:00~18:00", "09:00~18:00", "09:00~18:00", "-", "-"], "course": [""]}, {"name": "\ud1a0\uc131\uba74\ubcf4\uac74\uc9c0\uc18c", "lat": "38.25974792686125", "lng": "128.55667408707038", "url": "/info/%ED%86%A0%EC%84%B1%EB%A9%B4%EB%B3%B4%EA%B1%B4%EC%A7%80%EC%86%8C-%EA%B0%95%EC%9B%90%EB%8F%84-%EA%B3%A0%EC%84%B1%EA%B5%B0-%ED%86%A0%EC%84%B1%EB%A9%B4/", "workingTime": ["-", "09:00~18:00", "09:00~18:00", "09:00~18:00", "09:00~18:00", "09:00~18:00", "-", "-"], "course": [""]}, {"name": "\uc6a9\uc554\ubcf4\uac74\uc9c4\ub8cc\uc18c", "lat": "38.25810813228954", "lng": "128.5284708486128", "url": "/info/%EC%9A%A9%EC%95%94%EB%B3%B4%EA%B1%B4%EC%A7%84%EB%A3%8C%EC%86%8C-%EA%B0%95%EC%9B%90%EB%8F%84-%EA%B3%A0%EC%84%B1%EA%B5%B0-%ED%86%A0%EC%84%B1%EB%A9%B4/", "workingTime": ["-", "09:00~18:00", "09:00~18:00", "09:00~18:00", "09:00~18:00", "09:00~18:00", "-", "-"], "course": [""]}, {"name": "\uc131\ucc9c\ubcf4\uac74\uc9c4\ub8cc\uc18c", "lat": "38.227418676170004", "lng": "128.5477487807867", "url": "/info/%EC%84%B1%EC%B2%9C%EB%B3%B4%EA%B1%B4%EC%A7%84%EB%A3%8C%EC%86%8C-%EA%B0%95%EC%9B%90%EB%8F%84-%EA%B3%A0%EC%84%B1%EA%B5%B0-%ED%86%A0%EC%84%B1%EB%A9%B4/", "workingTime": ["-", "09:00~18:00", "09:00~18:00", "09:00~18:00", "09:00~18:00", "09:00~18:00", "-", "-"], "course": [""]}, {"name": "\ub3c4\uc6d0\ubcf4\uac74\uc9c4\ub8cc\uc18c", "lat": "38.271367842129656", "lng": "128.50001771596848", "url": "/info/%EB%8F%84%EC%9B%90%EB%B3%B4%EA%B1%B4%EC%A7%84%EB%A3%8C%EC%86%8C-%EA%B0%95%EC%9B%90%EB%8F%84-%EA%B3%A0%EC%84%B1%EA%B5%B0-%ED%86%A0%EC%84%B1%EB%A9%B4/", "workingTime": ["-", "09:00~18:00", "09:00~18:00", "09:00~18:00", "09:00~18:00", "09:00~18:00", "-", "-"], "course": [""]}]