[{"name": "\ubc14\ub978\uc815\ud615\uc678\uacfc\uc758\uc6d0", "lat": "37.3489110426975", "lng": "126.973992166319", "url": "/info/%EB%B0%94%EB%A5%B8%EC%A0%95%ED%98%95%EC%99%B8%EA%B3%BC%EC%9D%98%EC%9B%90-%EA%B2%BD%EA%B8%B0%EB%8F%84-%EC%9D%98%EC%99%95%EC%8B%9C-%EA%B3%A0%EC%B2%9C%EB%8F%99/", "workingTime": ["-", "09:00~18:00", "09:00~18:00", "09:00~18:00", "09:00~18:00", "09:00~18:00", "-", "-"], "course": ["\ub0b4\uacfc", "\ub9c8\ucde8\ud1b5\uc99d\uc758\ud559\uacfc", "\uc2e0\uacbd\uc678\uacfc", "\uc678\uacfc", "\uc7ac\ud65c\uc758\ud559\uacfc", "\uc815\ud615\uc678\uacfc", "\ud53c\ubd80\uacfc", "\ud749\ubd80\uc678\uacfc"]}, {"name": "\ub274\uc695\ubcf4\uac15\uce58\uacfc\uc758\uc6d0", "lat": "37.34779605627702", "lng": "126.97375306000337", "url": "/info/%EB%89%B4%EC%9A%95%EB%B3%B4%EA%B0%95%EC%B9%98%EA%B3%BC%EC%9D%98%EC%9B%90-%EA%B2%BD%EA%B8%B0%EB%8F%84-%EC%9D%98%EC%99%95%EC%8B%9C-%EA%B3%A0%EC%B2%9C%EB%8F%99/", "workingTime": ["-", "09:30~18:30", "09:30~18:30", "09:30~18:30", "09:30~18:30", "09:30~18:30", "09:30~13:30", "-"], "course": ["\uce58\uacfc"]}, {"name": "\ub958\uc774\ube44\uc778\ud6c4\uacfc\uc758\uc6d0", "lat": "37.347715500154045", "lng": "126.97382576511816", "url": "/info/%EB%A5%98%EC%9D%B4%EB%B9%84%EC%9D%B8%ED%9B%84%EA%B3%BC%EC%9D%98%EC%9B%90-%EA%B2%BD%EA%B8%B0%EB%8F%84-%EC%9D%98%EC%99%95%EC%8B%9C-%EA%B3%A0%EC%B2%9C%EB%8F%99/", "workingTime": ["-", "09:30~18:30", "09:30~18:30", "09:30~18:30", "09:30~18:30", "09:30~18:30", "09:30~13:30", "-"], "course": ["\uc548\uacfc", "\uc774\ube44\uc778\ud6c4\uacfc"]}, {"name": "\ud55c\uc77c\uc758\uc6d0", "lat": "37.349034638551366", "lng": "126.97400585980907", "url": "/info/%ED%95%9C%EC%9D%BC%EC%9D%98%EC%9B%90-%EA%B2%BD%EA%B8%B0%EB%8F%84-%EC%9D%98%EC%99%95%EC%8B%9C-%EA%B3%A0%EC%B2%9C%EB%8F%99/", "workingTime": ["-", "09:30~18:00", "09:30~18:00", "09:30~18:00", "09:30~18:00", "09:30~18:00", "09:00~13:00", "-"], "course": ["\ub0b4\uacfc", "\uc18c\uc544\uccad\uc18c\ub144\uacfc", "\uc601\uc0c1\uc758\ud559\uacfc"]}, {"name": "\uc758\uc655\uc2dc\ubcf4\uac74\uc18c", "lat": "37.34378787297733", "lng": "126.97199391807001", "url": "/info/%EC%9D%98%EC%99%95%EC%8B%9C%EB%B3%B4%EA%B1%B4%EC%86%8C-%EA%B2%BD%EA%B8%B0%EB%8F%84-%EC%9D%98%EC%99%95%EC%8B%9C-%EA%B3%A0%EC%B2%9C%EB%8F%99/", "workingTime": ["-", "09:00~18:00", "09:00~18:00", "09:00~18:00", "09:00~18:00", "09:00~18:00", "-", "-"], "course": [""]}, {"name": "\ubc1d\uc740\ubbf8\ub798\uc18c\uc544\uccad\uc18c\ub144\uacfc\uc758\uc6d0", "lat": "37.34793678559999", "lng": "126.97452498126624", "url": "/info/%EB%B0%9D%EC%9D%80%EB%AF%B8%EB%9E%98%EC%86%8C%EC%95%84%EC%B2%AD%EC%86%8C%EB%85%84%EA%B3%BC%EC%9D%98%EC%9B%90-%EA%B2%BD%EA%B8%B0%EB%8F%84-%EC%9D%98%EC%99%95%EC%8B%9C-%EA%B3%A0%EC%B2%9C%EB%8F%99/", "workingTime": ["-", "09:00~19:00", "09:00~19:00", "09:00~19:00", "09:00~19:00", "09:00~19:00", "09:00~15:00", "-"], "course": ["\ub0b4\uacfc", "\uc18c\uc544\uccad\uc18c\ub144\uacfc", "\uc548\uacfc", "\uc774\ube44\uc778\ud6c4\uacfc", "\ud53c\ubd80\uacfc"]}, {"name": "\uad8c\uae30\uc6b4\ub0b4\uacfc\uc758\uc6d0", "lat": "37.34779605627702", "lng": "126.97375306000337", "url": "/info/%EA%B6%8C%EA%B8%B0%EC%9A%B4%EB%82%B4%EA%B3%BC%EC%9D%98%EC%9B%90-%EA%B2%BD%EA%B8%B0%EB%8F%84-%EC%9D%98%EC%99%95%EC%8B%9C-%EA%B3%A0%EC%B2%9C%EB%8F%99/", "workingTime": ["-", "09:00~18:00", "09:00~18:00", "09:00~18:00", "09:00~13:00", "09:00~18:00", "09:00~13:00", "-"], "course": ["\ub0b4\uacfc", "\uc18c\uc544\uccad\uc18c\ub144\uacfc", "\uc2e0\uacbd\uacfc"]}]