[{"name": "\uc6d4\uacf6\ud55c\uc758\uc6d0", "lat": "37.71606056627208", "lng": "126.55491665404159", "url": "/info/%EC%9B%94%EA%B3%B6%ED%95%9C%EC%9D%98%EC%9B%90-%EA%B2%BD%EA%B8%B0%EB%8F%84-%EA%B9%80%ED%8F%AC%EC%8B%9C-%EC%9B%94%EA%B3%B6%EB%A9%B4/", "workingTime": ["-", "09:00~18:00", "09:00~18:00", "09:00~18:00", "09:00~18:00", "09:00~18:00", "09:00~15:00", "-"], "course": ["\ud55c\ubc29\ub0b4\uacfc", "\ud55c\ubc29\ubd80\uc778\uacfc", "\ud55c\ubc29\uc18c\uc544\uacfc", "\ud55c\ubc29\uc2e0\uacbd\uc815\uc2e0\uacfc", "\ud55c\ubc29\uc548\uc774\ube44\uc778\ud6c4\ud53c\ubd80\uacfc"]}, {"name": "\uae40\ud3ec\ud55c\ub204\ub9ac\ubcd1\uc6d0", "lat": "37.70049630635578", "lng": "126.5686397242617", "url": "/info/%EA%B9%80%ED%8F%AC%ED%95%9C%EB%88%84%EB%A6%AC%EB%B3%91%EC%9B%90-%EA%B2%BD%EA%B8%B0%EB%8F%84-%EA%B9%80%ED%8F%AC%EC%8B%9C-%EC%9B%94%EA%B3%B6%EB%A9%B4/", "workingTime": ["-", "09:30~17:00", "09:30~17:00", "09:30~17:00", "09:30~17:00", "09:30~17:00", "09:30~13:00", "-"], "course": ["\uc815\uc2e0\uac74\uac15\uc758\ud559\uacfc"]}, {"name": "\uc774\uac00\ud3b8\ud55c\uce58\uacfc\uc758\uc6d0", "lat": "37.7153180821886", "lng": "126.55299306813271", "url": "/info/%EC%9D%B4%EA%B0%80%ED%8E%B8%ED%95%9C%EC%B9%98%EA%B3%BC%EC%9D%98%EC%9B%90-%EA%B2%BD%EA%B8%B0%EB%8F%84-%EA%B9%80%ED%8F%AC%EC%8B%9C-%EC%9B%94%EA%B3%B6%EB%A9%B4/", "workingTime": ["-", "09:30~18:30", "09:30~20:00", "09:30~18:30", "09:30~18:30", "09:30~18:30", "09:30~13:00", "-"], "course": ["\uce58\uacfc"]}, {"name": "\uc6d4\uacf6\uba74\ubcf4\uac74\uc9c0\uc18c", "lat": "37.71713536858481", "lng": "126.55229707403302", "url": "/info/%EC%9B%94%EA%B3%B6%EB%A9%B4%EB%B3%B4%EA%B1%B4%EC%A7%80%EC%86%8C-%EA%B2%BD%EA%B8%B0%EB%8F%84-%EA%B9%80%ED%8F%AC%EC%8B%9C-%EC%9B%94%EA%B3%B6%EB%A9%B4/", "workingTime": ["-", "09:00~18:00", "09:00~18:00", "09:00~18:00", "09:00~18:00", "09:00~18:00", "-", "-"], "course": ["\ub0b4\uacfc"]}, {"name": "\uc131\ub3d9\ub9ac\ubcf4\uac74\uc9c4\ub8cc\uc18c", "lat": "37.750595161692495", "lng": "126.53806978896413", "url": "/info/%EC%84%B1%EB%8F%99%EB%A6%AC%EB%B3%B4%EA%B1%B4%EC%A7%84%EB%A3%8C%EC%86%8C-%EA%B2%BD%EA%B8%B0%EB%8F%84-%EA%B9%80%ED%8F%AC%EC%8B%9C-%EC%9B%94%EA%B3%B6%EB%A9%B4/", "workingTime": ["-", "09:00~18:00", "09:00~18:00", "09:00~18:00", "09:00~18:00", "09:00~18:00", "-", "-"], "course": ["\ub0b4\uacfc"]}, {"name": "\uac1c\uace1\ub9ac\ubcf4\uac74\uc9c4\ub8cc\uc18c", "lat": "37.73089152757727", "lng": "126.5924115264418", "url": "/info/%EA%B0%9C%EA%B3%A1%EB%A6%AC%EB%B3%B4%EA%B1%B4%EC%A7%84%EB%A3%8C%EC%86%8C-%EA%B2%BD%EA%B8%B0%EB%8F%84-%EA%B9%80%ED%8F%AC%EC%8B%9C-%EC%9B%94%EA%B3%B6%EB%A9%B4/", "workingTime": ["-", "09:00~18:00", "09:00~18:00", "09:00~18:00", "09:00~18:00", "09:00~18:00", "-", "-"], "course": ["\ub0b4\uacfc"]}]