[{"name": "\uc11c\uc6b8\uc388\uc815\ud615\uc678\uacfc\uc758\uc6d0", "lat": "37.2773438022056", "lng": "127.016104103108", "url": "/info/%EC%84%9C%EC%9A%B8%EC%8E%88%EC%A0%95%ED%98%95%EC%99%B8%EA%B3%BC%EC%9D%98%EC%9B%90-%EA%B2%BD%EA%B8%B0%EB%8F%84-%EC%88%98%EC%9B%90%EC%8B%9C-%ED%8C%94%EB%8B%AC%EB%A1%9C3%EA%B0%80/", "workingTime": ["-", "09:00~19:00", "09:00~19:00", "09:00~19:00", "09:00~19:00", "09:00~19:00", "09:00~14:00", "-"], "course": ["\ub9c8\ucde8\ud1b5\uc99d\uc758\ud559\uacfc", "\uc2e0\uacbd\uc678\uacfc", "\uc7ac\ud65c\uc758\ud559\uacfc", "\uc815\ud615\uc678\uacfc"]}, {"name": "\ubb38\uc548\uacfc\uc758\uc6d0", "lat": "37.27594907791961", "lng": "127.01688300944708", "url": "/info/%EB%AC%B8%EC%95%88%EA%B3%BC%EC%9D%98%EC%9B%90-%EA%B2%BD%EA%B8%B0%EB%8F%84-%EC%88%98%EC%9B%90%EC%8B%9C-%ED%8C%94%EB%8B%AC%EB%A1%9C3%EA%B0%80/", "workingTime": ["-", "09:00~18:00", "09:00~18:00", "09:00~18:00", "09:00~18:00", "09:00~18:00", "09:00~16:00", "09:00~13:00"], "course": ["\uc548\uacfc"]}, {"name": "\uc81c\uc77c\uc5f0\uc138\uc548\uacfc\uc758\uc6d0", "lat": "37.2772250189157", "lng": "127.01626988383634", "url": "/info/%EC%A0%9C%EC%9D%BC%EC%97%B0%EC%84%B8%EC%95%88%EA%B3%BC%EC%9D%98%EC%9B%90-%EA%B2%BD%EA%B8%B0%EB%8F%84-%EC%88%98%EC%9B%90%EC%8B%9C-%ED%8C%94%EB%8B%AC%EB%A1%9C3%EA%B0%80/", "workingTime": ["-", "09:00~18:00", "09:00~18:00", "09:00~18:00", "09:00~18:00", "09:00~18:00", "09:00~14:00", "-"], "course": ["\uc548\uacfc"]}, {"name": "\uc218\uc6d0\uc2e0\uacbd\uc815\uc2e0\uacfc\uc758\uc6d0", "lat": "37.27734416237125", "lng": "127.0161060200314", "url": "/info/%EC%88%98%EC%9B%90%EC%8B%A0%EA%B2%BD%EC%A0%95%EC%8B%A0%EA%B3%BC%EC%9D%98%EC%9B%90-%EA%B2%BD%EA%B8%B0%EB%8F%84-%EC%88%98%EC%9B%90%EC%8B%9C-%ED%8C%94%EB%8B%AC%EB%A1%9C3%EA%B0%80/", "workingTime": ["-", "10:00~18:00", "10:00~18:00", "10:00~18:00", "10:00~18:00", "10:00~18:00", "09:30~13:00", "-"], "course": ["\ub0b4\uacfc", "\uc2e0\uacbd\uacfc", "\uc815\uc2e0\uac74\uac15\uc758\ud559\uacfc"]}, {"name": "\uc774\uc5d4\uc870\uc5f0\ud569\uce58\uacfc\uc758\uc6d0", "lat": "37.27540138695271", "lng": "127.01705272941441", "url": "/info/%EC%9D%B4%EC%97%94%EC%A1%B0%EC%97%B0%ED%95%A9%EC%B9%98%EA%B3%BC%EC%9D%98%EC%9B%90-%EA%B2%BD%EA%B8%B0%EB%8F%84-%EC%88%98%EC%9B%90%EC%8B%9C-%ED%8C%94%EB%8B%AC%EB%A1%9C3%EA%B0%80/", "workingTime": ["-", "09:30~18:00", "09:30~20:00", "09:30~18:00", "09:30~18:00", "09:30~18:00", "09:30~13:00", "-"], "course": ["\uce58\uacfc"]}, {"name": "\uc218\uc6d0\uae40\uc548\uacfc\uc758\uc6d0", "lat": "37.2770953478", "lng": "127.0170170298", "url": "/info/%EC%88%98%EC%9B%90%EA%B9%80%EC%95%88%EA%B3%BC%EC%9D%98%EC%9B%90-%EA%B2%BD%EA%B8%B0%EB%8F%84-%EC%88%98%EC%9B%90%EC%8B%9C-%ED%8C%94%EB%8B%AC%EB%A1%9C3%EA%B0%80/", "workingTime": ["-", "09:30~18:30", "09:30~18:30", "09:30~18:30", "09:30~18:30", "09:30~18:30", "09:30~14:00", "-"], "course": ["\uc548\uacfc"]}, {"name": "\uc218\uc6d0\uc120\uce58\uacfc\uc758\uc6d0", "lat": "37.2763997629", "lng": "127.0168905885", "url": "/info/%EC%88%98%EC%9B%90%EC%84%A0%EC%B9%98%EA%B3%BC%EC%9D%98%EC%9B%90-%EA%B2%BD%EA%B8%B0%EB%8F%84-%EC%88%98%EC%9B%90%EC%8B%9C-%ED%8C%94%EB%8B%AC%EB%A1%9C3%EA%B0%80/", "workingTime": ["-", "10:00~18:00", "10:00~18:00", "10:00~18:00", "10:00~18:00", "10:00~18:00", "10:00~13:00", "-"], "course": ["\uce58\uacfc"]}, {"name": "\uc138\ube0c\ub780\uc2a4\ud53c\ubd80\uacfc\uc758\uc6d0", "lat": "37.2760970095081", "lng": "127.0169175817542", "url": "/info/%EC%84%B8%EB%B8%8C%EB%9E%80%EC%8A%A4%ED%94%BC%EB%B6%80%EA%B3%BC%EC%9D%98%EC%9B%90-%EA%B2%BD%EA%B8%B0%EB%8F%84-%EC%88%98%EC%9B%90%EC%8B%9C-%ED%8C%94%EB%8B%AC%EB%A1%9C3%EA%B0%80/", "workingTime": ["-", "10:00~18:30", "10:00~18:30", "-", "10:00~18:30", "10:00~18:30", "10:00~15:00", "-"], "course": ["\ube44\ub1e8\uc758\ud559\uacfc", "\ud53c\ubd80\uacfc"]}, {"name": "\uc7a5\ub355\ud658\uc815\uc2e0\uac74\uac15\uc758\ud559\uacfc\uc758\uc6d0", "lat": "37.27718918285823", "lng": "127.01611049722939", "url": "/info/%EC%9E%A5%EB%8D%95%ED%99%98%EC%A0%95%EC%8B%A0%EA%B1%B4%EA%B0%95%EC%9D%98%ED%95%99%EA%B3%BC%EC%9D%98%EC%9B%90-%EA%B2%BD%EA%B8%B0%EB%8F%84-%EC%88%98%EC%9B%90%EC%8B%9C-%ED%8C%94%EB%8B%AC%EB%A1%9C3%EA%B0%80/", "workingTime": ["-", "10:00~17:00", "10:00~17:00", "-", "10:00~17:00", "10:00~17:00", "10:00~13:00", "-"], "course": ["\ub0b4\uacfc", "\uc2e0\uacbd\uacfc", "\uc815\uc2e0\uac74\uac15\uc758\ud559\uacfc"]}, {"name": "\uc774\uc21c\ud638\ube44\ub1e8\uae30\uacfc\uc758\uc6d0", "lat": "37.27734416237125", "lng": "127.0161060200314", "url": "/info/%EC%9D%B4%EC%88%9C%ED%98%B8%EB%B9%84%EB%87%A8%EA%B8%B0%EA%B3%BC%EC%9D%98%EC%9B%90-%EA%B2%BD%EA%B8%B0%EB%8F%84-%EC%88%98%EC%9B%90%EC%8B%9C-%ED%8C%94%EB%8B%AC%EB%A1%9C3%EA%B0%80/", "workingTime": ["-", "09:30~18:00", "09:30~18:00", "09:30~18:00", "09:30~18:00", "09:30~18:00", "09:30~13:00", "-"], "course": ["\ube44\ub1e8\uc758\ud559\uacfc", "\ud53c\ubd80\uacfc"]}, {"name": "\uc608\uce58\uacfc\uc758\uc6d0", "lat": "37.27647552127632", "lng": "127.01638546581276", "url": "/info/%EC%98%88%EC%B9%98%EA%B3%BC%EC%9D%98%EC%9B%90-%EA%B2%BD%EA%B8%B0%EB%8F%84-%EC%88%98%EC%9B%90%EC%8B%9C-%ED%8C%94%EB%8B%AC%EB%A1%9C3%EA%B0%80/", "workingTime": ["-", "10:00~18:00", "10:00~18:00", "10:00~18:00", "10:00~18:00", "10:00~18:00", "10:00~13:00", "-"], "course": ["\uce58\uacfc"]}, {"name": "\uc774\uac15\uc6b1\uce58\uacfc\uc758\uc6d0", "lat": "37.27709534783981", "lng": "127.01701702983487", "url": "/info/%EC%9D%B4%EA%B0%95%EC%9A%B1%EC%B9%98%EA%B3%BC%EC%9D%98%EC%9B%90-%EA%B2%BD%EA%B8%B0%EB%8F%84-%EC%88%98%EC%9B%90%EC%8B%9C-%ED%8C%94%EB%8B%AC%EB%A1%9C3%EA%B0%80/", "workingTime": ["-", "10:00~18:00", "10:00~18:00", "10:00~18:00", "10:00~18:00", "10:00~18:00", "10:00~13:00", "-"], "course": ["\uce58\uacfc"]}]