[{"name": "\ud61c\ubbfc\uc758\uc6d0", "lat": "36.541790492025285", "lng": "128.46650002343188", "url": "/info/%ED%98%9C%EB%AF%BC%EC%9D%98%EC%9B%90-%EA%B2%BD%EC%83%81%EB%B6%81%EB%8F%84-%EC%95%88%EB%8F%99%EC%8B%9C-%ED%92%8D%EC%B2%9C%EB%A9%B4/", "workingTime": ["-", "08:30~18:00", "08:30~18:00", "08:30~18:00", "08:30~18:00", "08:30~18:00", "08:30~14:30", "-"], "course": ["\ub0b4\uacfc"]}, {"name": "\uac00\uace1\ubcf4\uac74\uc9c4\ub8cc\uc18c", "lat": "36.57176129732095", "lng": "128.52502089046385", "url": "/info/%EA%B0%80%EA%B3%A1%EB%B3%B4%EA%B1%B4%EC%A7%84%EB%A3%8C%EC%86%8C-%EA%B2%BD%EC%83%81%EB%B6%81%EB%8F%84-%EC%95%88%EB%8F%99%EC%8B%9C-%ED%92%8D%EC%B2%9C%EB%A9%B4/", "workingTime": ["-", "09:00~18:00", "09:00~18:00", "09:00~18:00", "09:00~18:00", "09:00~18:00", "-", "-"], "course": [""]}, {"name": "\ud558\ud68c\ubcf4\uac74\uc9c4\ub8cc\uc18c", "lat": "36.539457607358464", "lng": "128.51984327316643", "url": "/info/%ED%95%98%ED%9A%8C%EB%B3%B4%EA%B1%B4%EC%A7%84%EB%A3%8C%EC%86%8C-%EA%B2%BD%EC%83%81%EB%B6%81%EB%8F%84-%EC%95%88%EB%8F%99%EC%8B%9C-%ED%92%8D%EC%B2%9C%EB%A9%B4/", "workingTime": ["-", "09:00~18:00", "09:00~18:00", "09:00~18:00", "09:00~18:00", "09:00~18:00", "-", "-"], "course": [""]}, {"name": "\ud48d\ucc9c\uba74\ubcf4\uac74\uc9c0\uc18c", "lat": "36.55611274546218", "lng": "128.50622273692414", "url": "/info/%ED%92%8D%EC%B2%9C%EB%A9%B4%EB%B3%B4%EA%B1%B4%EC%A7%80%EC%86%8C-%EA%B2%BD%EC%83%81%EB%B6%81%EB%8F%84-%EC%95%88%EB%8F%99%EC%8B%9C-%ED%92%8D%EC%B2%9C%EB%A9%B4/", "workingTime": ["-", "09:00~18:00", "09:00~18:00", "09:00~18:00", "09:00~18:00", "09:00~18:00", "-", "-"], "course": [""]}, {"name": "\uc5b4\ub2f4\ubcf4\uac74\uc9c4\ub8cc\uc18c", "lat": "36.493816390086906", "lng": "128.56387769414462", "url": "/info/%EC%96%B4%EB%8B%B4%EB%B3%B4%EA%B1%B4%EC%A7%84%EB%A3%8C%EC%86%8C-%EA%B2%BD%EC%83%81%EB%B6%81%EB%8F%84-%EC%95%88%EB%8F%99%EC%8B%9C-%ED%92%8D%EC%B2%9C%EB%A9%B4/", "workingTime": ["-", "09:00~18:00", "09:00~18:00", "09:00~18:00", "09:00~18:00", "09:00~18:00", "-", "-"], "course": [""]}, {"name": "\uc2e0\uc131\ubcf4\uac74\uc9c4\ub8cc\uc18c", "lat": "36.51856657258116", "lng": "128.45308576485286", "url": "/info/%EC%8B%A0%EC%84%B1%EB%B3%B4%EA%B1%B4%EC%A7%84%EB%A3%8C%EC%86%8C-%EA%B2%BD%EC%83%81%EB%B6%81%EB%8F%84-%EC%95%88%EB%8F%99%EC%8B%9C-%ED%92%8D%EC%B2%9C%EB%A9%B4/", "workingTime": ["-", "09:00~18:00", "09:00~18:00", "09:00~18:00", "09:00~18:00", "09:00~18:00", "-", "-"], "course": [""]}]