[{"name": "\ub0a8\uba74\uc758\uc6d0", "lat": "34.77148020646646", "lng": "127.88611826303777", "url": "/info/%EB%82%A8%EB%A9%B4%EC%9D%98%EC%9B%90-%EA%B2%BD%EC%83%81%EB%82%A8%EB%8F%84-%EB%82%A8%ED%95%B4%EA%B5%B0-%EB%82%A8%EB%A9%B4/", "workingTime": ["-", "08:00~17:00", "08:00~17:00", "08:00~17:00", "08:00~17:00", "08:00~17:00", "-", "-"], "course": ["\ub0b4\uacfc", "\uc18c\uc544\uccad\uc18c\ub144\uacfc", "\uc678\uacfc", "\uc774\ube44\uc778\ud6c4\uacfc", "\uc815\ud615\uc678\uacfc"]}, {"name": "\ub0a8\ud574\uad70\ub0a8\uba74\ud64d\ud604\ubcf4\uac74\uc9c4\ub8cc\uc18c", "lat": "34.744115563580806", "lng": "127.9075712416703", "url": "/info/%EB%82%A8%ED%95%B4%EA%B5%B0%EB%82%A8%EB%A9%B4%ED%99%8D%ED%98%84%EB%B3%B4%EA%B1%B4%EC%A7%84%EB%A3%8C%EC%86%8C-%EA%B2%BD%EC%83%81%EB%82%A8%EB%8F%84-%EB%82%A8%ED%95%B4%EA%B5%B0-%EB%82%A8%EB%A9%B4/", "workingTime": ["-", "09:00~18:00", "09:00~18:00", "09:00~18:00", "09:00~18:00", "09:00~18:00", "-", "-"], "course": [""]}, {"name": "\ub0a8\ud574\uad70\ub0a8\uba74\ub355\uc6d4\ubcf4\uac74\uc9c4\ub8cc\uc18c", "lat": "34.782509896520594", "lng": "127.85698055871135", "url": "/info/%EB%82%A8%ED%95%B4%EA%B5%B0%EB%82%A8%EB%A9%B4%EB%8D%95%EC%9B%94%EB%B3%B4%EA%B1%B4%EC%A7%84%EB%A3%8C%EC%86%8C-%EA%B2%BD%EC%83%81%EB%82%A8%EB%8F%84-%EB%82%A8%ED%95%B4%EA%B5%B0-%EB%82%A8%EB%A9%B4/", "workingTime": ["-", "09:00~18:00", "09:00~18:00", "09:00~18:00", "09:00~18:00", "09:00~18:00", "-", "-"], "course": [""]}, {"name": "\ub0a8\ud574\uad70\ub0a8\uba74\ubcf4\uac74\uc9c0\uc18c", "lat": "34.77216519767813", "lng": "127.8871174372176", "url": "/info/%EB%82%A8%ED%95%B4%EA%B5%B0%EB%82%A8%EB%A9%B4%EB%B3%B4%EA%B1%B4%EC%A7%80%EC%86%8C-%EA%B2%BD%EC%83%81%EB%82%A8%EB%8F%84-%EB%82%A8%ED%95%B4%EA%B5%B0-%EB%82%A8%EB%A9%B4/", "workingTime": ["-", "09:00~18:00", "09:00~18:00", "09:00~18:00", "09:00~18:00", "09:00~18:00", "-", "-"], "course": ["\ub0b4\uacfc"]}, {"name": "\ub0a8\ud574\uad70\ub0a8\uba74\uc120\uad6c\ubcf4\uac74\uc9c4\ub8cc\uc18c", "lat": "34.738717966525456", "lng": "127.8559750227079", "url": "/info/%EB%82%A8%ED%95%B4%EA%B5%B0%EB%82%A8%EB%A9%B4%EC%84%A0%EA%B5%AC%EB%B3%B4%EA%B1%B4%EC%A7%84%EB%A3%8C%EC%86%8C-%EA%B2%BD%EC%83%81%EB%82%A8%EB%8F%84-%EB%82%A8%ED%95%B4%EA%B5%B0-%EB%82%A8%EB%A9%B4/", "workingTime": ["-", "09:00~18:00", "09:00~18:00", "09:00~18:00", "09:00~18:00", "09:00~18:00", "-", "-"], "course": [""]}]