[{"name": "\uc9c4\ud574\uc548\uacfc\uc758\uc6d0", "lat": "35.15253899133916", "lng": "128.66667931102148", "url": "/info/%EC%A7%84%ED%95%B4%EC%95%88%EA%B3%BC%EC%9D%98%EC%9B%90-%EA%B2%BD%EC%83%81%EB%82%A8%EB%8F%84-%EC%B0%BD%EC%9B%90%EC%8B%9C-%EC%97%AC%EC%A2%8C%EB%8F%99/", "workingTime": ["1,2,3,4,5\uc9f8\uc8fc10:30~21:00", "09:00~21:00", "09:00~21:00", "09:00~21:00", "09:00~21:00", "09:00~21:00", "09:00~21:00", "09:00~21:00"], "course": ["\uc548\uacfc"]}, {"name": "\uae40\uae30\ubbfc\uc18c\uc544\uacfc\uc758\uc6d0", "lat": "35.15248903526521", "lng": "128.6666646799522", "url": "/info/%EA%B9%80%EA%B8%B0%EB%AF%BC%EC%86%8C%EC%95%84%EA%B3%BC%EC%9D%98%EC%9B%90-%EA%B2%BD%EC%83%81%EB%82%A8%EB%8F%84-%EC%B0%BD%EC%9B%90%EC%8B%9C-%EC%97%AC%EC%A2%8C%EB%8F%99/", "workingTime": ["-", "09:00~18:30", "09:00~18:30", "09:00~17:30", "09:00~18:30", "09:00~18:30", "09:00~13:30", "-"], "course": ["\uc18c\uc544\uccad\uc18c\ub144\uacfc"]}, {"name": "\uacf5\uc815\ud615\uc678\uacfc\uc758\uc6d0", "lat": "35.15253899133916", "lng": "128.66667931102148", "url": "/info/%EA%B3%B5%EC%A0%95%ED%98%95%EC%99%B8%EA%B3%BC%EC%9D%98%EC%9B%90-%EA%B2%BD%EC%83%81%EB%82%A8%EB%8F%84-%EC%B0%BD%EC%9B%90%EC%8B%9C-%EC%97%AC%EC%A2%8C%EB%8F%99/", "workingTime": ["-", "09:00~18:30", "09:00~18:30", "09:00~18:30", "09:00~18:30", "09:00~18:30", "-", "-"], "course": ["\uc815\ud615\uc678\uacfc"]}, {"name": "\uc911\uc559\uc758\uc6d0", "lat": "35.15240439065441", "lng": "128.6663331959637", "url": "/info/%EC%A4%91%EC%95%99%EC%9D%98%EC%9B%90-%EA%B2%BD%EC%83%81%EB%82%A8%EB%8F%84-%EC%B0%BD%EC%9B%90%EC%8B%9C-%EC%97%AC%EC%A2%8C%EB%8F%99/", "workingTime": ["-", "09:00~20:30", "09:00~20:30", "09:00~20:30", "09:00~20:30", "09:00~20:30", "09:00~13:00", "-"], "course": ["\ub0b4\uacfc", "\ub9c8\ucde8\ud1b5\uc99d\uc758\ud559\uacfc", "\uc18c\uc544\uccad\uc18c\ub144\uacfc", "\uc774\ube44\uc778\ud6c4\uacfc"]}, {"name": "\ub298\ud478\ub978\uc694\uc591\ubcd1\uc6d0", "lat": "35.15270949370365", "lng": "128.67192256591153", "url": "/info/%EB%8A%98%ED%91%B8%EB%A5%B8%EC%9A%94%EC%96%91%EB%B3%91%EC%9B%90-%EA%B2%BD%EC%83%81%EB%82%A8%EB%8F%84-%EC%B0%BD%EC%9B%90%EC%8B%9C-%EC%97%AC%EC%A2%8C%EB%8F%99/", "workingTime": ["-", "09:00~18:00", "09:00~18:00", "09:00~18:00", "09:00~18:00", "09:00~18:00", "-", "-"], "course": ["\uac00\uc815\uc758\ud559\uacfc", "\ub0b4\uacfc", "\uc0ac\uc0c1\uccb4\uc9c8\uacfc", "\uc678\uacfc", "\uce68\uad6c\uacfc", "\ud55c\ubc29\ub0b4\uacfc", "\ud55c\ubc29\ubd80\uc778\uacfc", "\ud55c\ubc29\uc2e0\uacbd\uc815\uc2e0\uacfc", "\ud55c\ubc29\uc7ac\ud65c\uc758\ud559\uacfc"]}, {"name": "\uc870\uc774\ube44\uc778\ud6c4\uacfc\uc758\uc6d0", "lat": "35.152427038194716", "lng": "128.66538220623636", "url": "/info/%EC%A1%B0%EC%9D%B4%EB%B9%84%EC%9D%B8%ED%9B%84%EA%B3%BC%EC%9D%98%EC%9B%90-%EA%B2%BD%EC%83%81%EB%82%A8%EB%8F%84-%EC%B0%BD%EC%9B%90%EC%8B%9C-%EC%97%AC%EC%A2%8C%EB%8F%99/", "workingTime": ["-", "09:00~18:00", "09:00~18:00", "09:00~18:00", "09:00~18:00", "09:00~18:00", "09:00~12:30", "-"], "course": ["\uc18c\uc544\uccad\uc18c\ub144\uacfc", "\uc774\ube44\uc778\ud6c4\uacfc"]}, {"name": "\ubbf8\uc758\uc6d0", "lat": "35.15244657608114", "lng": "128.6666720437357", "url": "/info/%EB%AF%B8%EC%9D%98%EC%9B%90-%EA%B2%BD%EC%83%81%EB%82%A8%EB%8F%84-%EC%B0%BD%EC%9B%90%EC%8B%9C-%EC%97%AC%EC%A2%8C%EB%8F%99/", "workingTime": ["-", "09:00~18:30", "09:00~18:30", "09:00~18:30", "09:00~18:30", "09:00~18:30", "09:00~14:00", "09:00~13:00"], "course": ["\ub0b4\uacfc", "\uc131\ud615\uc678\uacfc", "\ud53c\ubd80\uacfc"]}, {"name": "\ud55c\uc194\ub0b4\uacfc\uc758\uc6d0", "lat": "35.152572222222226", "lng": "128.664236111111109", "url": "/info/%ED%95%9C%EC%86%94%EB%82%B4%EA%B3%BC%EC%9D%98%EC%9B%90-%EA%B2%BD%EC%83%81%EB%82%A8%EB%8F%84-%EC%B0%BD%EC%9B%90%EC%8B%9C-%EC%97%AC%EC%A2%8C%EB%8F%99/", "workingTime": ["-", "09:00~18:00", "09:00~18:00", "09:00~18:00", "09:00~18:00", "09:00~18:00", "09:00~13:00", "09:00~13:00"], "course": ["\ub0b4\uacfc"]}, {"name": "\ucd5c\ubcd1\ud6c8\uc815\uc2e0\uac74\uac15\uc758\ud559\uacfc\uc758\uc6d0", "lat": "35.15244510907641", "lng": "128.6666905655198", "url": "/info/%EC%B5%9C%EB%B3%91%ED%9B%88%EC%A0%95%EC%8B%A0%EA%B1%B4%EA%B0%95%EC%9D%98%ED%95%99%EA%B3%BC%EC%9D%98%EC%9B%90-%EA%B2%BD%EC%83%81%EB%82%A8%EB%8F%84-%EC%B0%BD%EC%9B%90%EC%8B%9C-%EC%97%AC%EC%A2%8C%EB%8F%99/", "workingTime": ["-", "09:00~17:30", "09:00~17:30", "09:00~17:30", "09:00~17:30", "09:00~17:30", "09:00~12:30", "-"], "course": ["\uc2e0\uacbd\uacfc", "\uc815\uc2e0\uac74\uac15\uc758\ud559\uacfc"]}, {"name": "\ubb38\ud76c\uac74\ud76c\ub9dd\ub0b4\uacfc\uc758\uc6d0", "lat": "35.152471699714326", "lng": "128.66668131988732", "url": "/info/%EB%AC%B8%ED%9D%AC%EA%B1%B4%ED%9D%AC%EB%A7%9D%EB%82%B4%EA%B3%BC%EC%9D%98%EC%9B%90-%EA%B2%BD%EC%83%81%EB%82%A8%EB%8F%84-%EC%B0%BD%EC%9B%90%EC%8B%9C-%EC%97%AC%EC%A2%8C%EB%8F%99/", "workingTime": ["-", "09:00~18:30", "09:00~18:30", "09:00~18:30", "09:00~18:30", "09:00~18:30", "09:00~13:00", "-"], "course": ["\ub0b4\uacfc"]}, {"name": "\uc624\ubcd1\ud638\uce58\uacfc\uc758\uc6d0", "lat": "35.15244657608114", "lng": "128.6666720437357", "url": "/info/%EC%98%A4%EB%B3%91%ED%98%B8%EC%B9%98%EA%B3%BC%EC%9D%98%EC%9B%90-%EA%B2%BD%EC%83%81%EB%82%A8%EB%8F%84-%EC%B0%BD%EC%9B%90%EC%8B%9C-%EC%97%AC%EC%A2%8C%EB%8F%99/", "workingTime": ["-", "09:30~18:30", "09:30~18:30", "09:30~18:30", "09:30~18:30", "09:30~18:30", "09:30~13:00", "-"], "course": ["\uce58\uacfc"]}, {"name": "\ud558\ube44\ub1e8\uae30\uacfc\uc758\uc6d0", "lat": "35.152394444444447", "lng": "128.666677777777778", "url": "/info/%ED%95%98%EB%B9%84%EB%87%A8%EA%B8%B0%EA%B3%BC%EC%9D%98%EC%9B%90-%EA%B2%BD%EC%83%81%EB%82%A8%EB%8F%84-%EC%B0%BD%EC%9B%90%EC%8B%9C-%EC%97%AC%EC%A2%8C%EB%8F%99/", "workingTime": ["-", "09:00~18:10", "09:00~18:10", "09:00~18:10", "09:00~18:10", "09:00~18:10", "09:00~13:00", "-"], "course": ["\ube44\ub1e8\uc758\ud559\uacfc"]}, {"name": "\ubd80\ubbfc\uce58\uacfc\uc758\uc6d0", "lat": "35.152441666666668", "lng": "128.666205555555564", "url": "/info/%EB%B6%80%EB%AF%BC%EC%B9%98%EA%B3%BC%EC%9D%98%EC%9B%90-%EA%B2%BD%EC%83%81%EB%82%A8%EB%8F%84-%EC%B0%BD%EC%9B%90%EC%8B%9C-%EC%97%AC%EC%A2%8C%EB%8F%99/", "workingTime": ["-", "09:30~18:30", "09:30~18:30", "09:30~18:30", "09:30~18:30", "09:30~18:30", "-", "-"], "course": ["\uce58\uacfc"]}, {"name": "\ub274\uc695\ucf5c\ub86c\ube44\uc544\uce58\uacfc\uc758\uc6d0", "lat": "35.152447222222222", "lng": "128.666052777777765", "url": "/info/%EB%89%B4%EC%9A%95%EC%BD%9C%EB%A1%AC%EB%B9%84%EC%95%84%EC%B9%98%EA%B3%BC%EC%9D%98%EC%9B%90-%EA%B2%BD%EC%83%81%EB%82%A8%EB%8F%84-%EC%B0%BD%EC%9B%90%EC%8B%9C-%EC%97%AC%EC%A2%8C%EB%8F%99/", "workingTime": ["-", "09:30~19:00", "09:30~19:00", "09:30~21:00", "09:30~19:00", "09:30~19:00", "09:30~13:00", "-"], "course": ["\uce58\uacfc"]}, {"name": "\ud770\ub3cc\uce58\uacfc\uc758\uc6d0", "lat": "35.152540139557345", "lng": "128.66537471633498", "url": "/info/%ED%9D%B0%EB%8F%8C%EC%B9%98%EA%B3%BC%EC%9D%98%EC%9B%90-%EA%B2%BD%EC%83%81%EB%82%A8%EB%8F%84-%EC%B0%BD%EC%9B%90%EC%8B%9C-%EC%97%AC%EC%A2%8C%EB%8F%99/", "workingTime": ["-", "09:30~18:00", "09:30~18:00", "09:30~18:00", "09:30~18:00", "09:30~18:00", "09:30~13:00", "-"], "course": ["\uce58\uacfc"]}, {"name": "\uc6b0\uce58\uacfc\uc758\uc6d0", "lat": "35.15282630559907", "lng": "128.66212371995596", "url": "/info/%EC%9A%B0%EC%B9%98%EA%B3%BC%EC%9D%98%EC%9B%90-%EA%B2%BD%EC%83%81%EB%82%A8%EB%8F%84-%EC%B0%BD%EC%9B%90%EC%8B%9C-%EC%97%AC%EC%A2%8C%EB%8F%99/", "workingTime": ["-", "09:00~18:00", "09:00~18:00", "09:00~18:00", "09:00~18:00", "09:00~18:00", "-", "-"], "course": ["\uce58\uacfc"]}]