[{"name": "\uc758\ub8cc\ubc95\uc778\uc81c\uc911\uc6d0\uc81c\ub0a8\ubcd1\uc6d0", "lat": "36.29998514792112", "lng": "128.58219440906245", "url": "/info/%EC%9D%98%EB%A3%8C%EB%B2%95%EC%9D%B8%EC%A0%9C%EC%A4%91%EC%9B%90%EC%A0%9C%EB%82%A8%EB%B3%91%EC%9B%90-%EA%B2%BD%EC%83%81%EB%B6%81%EB%8F%84-%EC%9D%98%EC%84%B1%EA%B5%B0-%EB%B4%89%EC%96%91%EB%A9%B4/", "workingTime": ["1,2,3,4,5\uc9f8\uc8fc09:00~21:00", "09:00~21:00", "09:00~21:00", "09:00~21:00", "09:00~21:00", "09:00~21:00", "09:00~21:00", "09:00~21:00"], "course": ["\ub0b4\uacfc", "\uc18c\uc544\uccad\uc18c\ub144\uacfc", "\uc678\uacfc"]}, {"name": "\uc7a5\ub300\ubcf4\uac74\uc9c4\ub8cc\uc18c", "lat": "36.286374604190954", "lng": "128.62208554432388", "url": "/info/%EC%9E%A5%EB%8C%80%EB%B3%B4%EA%B1%B4%EC%A7%84%EB%A3%8C%EC%86%8C-%EA%B2%BD%EC%83%81%EB%B6%81%EB%8F%84-%EC%9D%98%EC%84%B1%EA%B5%B0-%EB%B4%89%EC%96%91%EB%A9%B4/", "workingTime": ["-", "09:00~18:00", "09:00~18:00", "09:00~18:00", "09:00~18:00", "09:00~18:00", "-", "-"], "course": [""]}, {"name": "\ub300\uc2e0\uc758\uc6d0", "lat": "36.299053067718184", "lng": "128.58017633215246", "url": "/info/%EB%8C%80%EC%8B%A0%EC%9D%98%EC%9B%90-%EA%B2%BD%EC%83%81%EB%B6%81%EB%8F%84-%EC%9D%98%EC%84%B1%EA%B5%B0-%EB%B4%89%EC%96%91%EB%A9%B4/", "workingTime": ["-", "08:30~18:00", "08:30~18:00", "08:30~18:00", "08:30~18:00", "08:30~18:00", "08:30~13:00", "08:30~13:00"], "course": ["\uc678\uacfc"]}, {"name": "\ubc15\uc900\ubaa8\uce58\uacfc\uc758\uc6d0", "lat": "36.299180555555559", "lng": "128.579966666666678", "url": "/info/%EB%B0%95%EC%A4%80%EB%AA%A8%EC%B9%98%EA%B3%BC%EC%9D%98%EC%9B%90-%EA%B2%BD%EC%83%81%EB%B6%81%EB%8F%84-%EC%9D%98%EC%84%B1%EA%B5%B0-%EB%B4%89%EC%96%91%EB%A9%B4/", "workingTime": ["-", "08:00~17:00", "08:00~17:00", "08:00~17:00", "08:00~17:00", "08:00~17:00", "-", "-"], "course": ["\uce58\uacfc", "\uce58\uacfc\ubcf4\ucca0\uacfc"]}, {"name": "\ubd09\uc591\ubcf4\uac74\uc9c0\uc18c", "lat": "36.30065043674717", "lng": "128.5760273463269", "url": "/info/%EB%B4%89%EC%96%91%EB%B3%B4%EA%B1%B4%EC%A7%80%EC%86%8C-%EA%B2%BD%EC%83%81%EB%B6%81%EB%8F%84-%EC%9D%98%EC%84%B1%EA%B5%B0-%EB%B4%89%EC%96%91%EB%A9%B4/", "workingTime": ["-", "09:00~18:00", "09:00~18:00", "09:00~18:00", "09:00~18:00", "09:00~18:00", "-", "-"], "course": [""]}, {"name": "\ucc3d\uc77c\ud55c\uc758\uc6d0", "lat": "36.29984149831342", "lng": "128.58140007569386", "url": "/info/%EC%B0%BD%EC%9D%BC%ED%95%9C%EC%9D%98%EC%9B%90-%EA%B2%BD%EC%83%81%EB%B6%81%EB%8F%84-%EC%9D%98%EC%84%B1%EA%B5%B0-%EB%B4%89%EC%96%91%EB%A9%B4/", "workingTime": ["-", "08:30~18:00", "08:30~18:00", "08:30~18:00", "08:30~18:00", "08:30~18:00", "08:30~15:00", "08:30~15:00"], "course": ["\ud55c\ubc29\ub0b4\uacfc"]}]