[{"name": "\ud55c\uc0b0\uba74\ubcf4\uac74\uc9c0\uc18c", "lat": "34.766798496549285", "lng": "128.50331661186286", "url": "/info/%ED%95%9C%EC%82%B0%EB%A9%B4%EB%B3%B4%EA%B1%B4%EC%A7%80%EC%86%8C-%EA%B2%BD%EC%83%81%EB%82%A8%EB%8F%84-%ED%86%B5%EC%98%81%EC%8B%9C-%ED%95%9C%EC%82%B0%EB%A9%B4/", "workingTime": ["-", "09:00~18:00", "09:00~18:00", "09:00~18:00", "09:00~18:00", "09:00~18:00", "-", "-"], "course": ["\ub0b4\uacfc", "\ud55c\ubc29\ub0b4\uacfc"]}, {"name": "\ud1b5\uc601\uc2dc\ud55c\uc0b0\uba74\ub9e4\ubb3c\ub3c4\ubcf4\uac74\uc9c4\ub8cc\uc18c", "lat": "34.6475206894161", "lng": "128.57592073859772", "url": "/info/%ED%86%B5%EC%98%81%EC%8B%9C%ED%95%9C%EC%82%B0%EB%A9%B4%EB%A7%A4%EB%AC%BC%EB%8F%84%EB%B3%B4%EA%B1%B4%EC%A7%84%EB%A3%8C%EC%86%8C-%EA%B2%BD%EC%83%81%EB%82%A8%EB%8F%84-%ED%86%B5%EC%98%81%EC%8B%9C-%ED%95%9C%EC%82%B0%EB%A9%B4/", "workingTime": ["-", "09:00~18:00", "09:00~18:00", "09:00~18:00", "09:00~18:00", "09:00~18:00", "-", "-"], "course": [""]}, {"name": "\ud1b5\uc601\uc2dc\ubcf4\uac74\uc18c\ub450\uc5b5\ubcf4\uac74\uc9c4\ub8cc\uc18c", "lat": "34.785006976960744", "lng": "128.47961303035856", "url": "/info/%ED%86%B5%EC%98%81%EC%8B%9C%EB%B3%B4%EA%B1%B4%EC%86%8C%EB%91%90%EC%96%B5%EB%B3%B4%EA%B1%B4%EC%A7%84%EB%A3%8C%EC%86%8C-%EA%B2%BD%EC%83%81%EB%82%A8%EB%8F%84-%ED%86%B5%EC%98%81%EC%8B%9C-%ED%95%9C%EC%82%B0%EB%A9%B4/", "workingTime": ["-", "09:00~18:00", "09:00~18:00", "09:00~18:00", "09:00~18:00", "09:00~18:00", "-", "-"], "course": [""]}, {"name": "\ud1b5\uc601\uc2dc\ud55c\uc0b0\uba74\ube44\uc9c4\ubcf4\uac74\uc9c4\ub8cc\uc18c", "lat": "34.72141882024956", "lng": "128.46098370415237", "url": "/info/%ED%86%B5%EC%98%81%EC%8B%9C%ED%95%9C%EC%82%B0%EB%A9%B4%EB%B9%84%EC%A7%84%EB%B3%B4%EA%B1%B4%EC%A7%84%EB%A3%8C%EC%86%8C-%EA%B2%BD%EC%83%81%EB%82%A8%EB%8F%84-%ED%86%B5%EC%98%81%EC%8B%9C-%ED%95%9C%EC%82%B0%EB%A9%B4/", "workingTime": ["-", "09:00~18:00", "09:00~18:00", "09:00~18:00", "09:00~18:00", "09:00~18:00", "-", "-"], "course": [""]}, {"name": "\ud1b5\uc601\uc2dc\ud55c\uc0b0\uba74\uc5fc\ud638\ub9ac\ubcf4\uac74\uc9c4\ub8cc\uc18c", "lat": "34.79553743143533", "lng": "128.48763286522876", "url": "/info/%ED%86%B5%EC%98%81%EC%8B%9C%ED%95%9C%EC%82%B0%EB%A9%B4%EC%97%BC%ED%98%B8%EB%A6%AC%EB%B3%B4%EA%B1%B4%EC%A7%84%EB%A3%8C%EC%86%8C-%EA%B2%BD%EC%83%81%EB%82%A8%EB%8F%84-%ED%86%B5%EC%98%81%EC%8B%9C-%ED%95%9C%EC%82%B0%EB%A9%B4/", "workingTime": ["-", "09:00~18:00", "09:00~18:00", "09:00~18:00", "09:00~18:00", "09:00~18:00", "-", "-"], "course": [""]}, {"name": "\ud1b5\uc601\uc2dc\ud55c\uc0b0\uba74\ucd94\ubd09\ub9ac\ubcf4\uac74\uc9c4\ub8cc\uc18c", "lat": "34.757133924920694", "lng": "128.52956972041278", "url": "/info/%ED%86%B5%EC%98%81%EC%8B%9C%ED%95%9C%EC%82%B0%EB%A9%B4%EC%B6%94%EB%B4%89%EB%A6%AC%EB%B3%B4%EA%B1%B4%EC%A7%84%EB%A3%8C%EC%86%8C-%EA%B2%BD%EC%83%81%EB%82%A8%EB%8F%84-%ED%86%B5%EC%98%81%EC%8B%9C-%ED%95%9C%EC%82%B0%EB%A9%B4/", "workingTime": ["-", "09:00~18:00", "09:00~18:00", "09:00~18:00", "09:00~18:00", "09:00~18:00", "-", "-"], "course": [""]}, {"name": "\ud1b5\uc601\uc2dc\ud55c\uc0b0\uba74\ud638\ub450\ubcf4\uac74\uc9c4\ub8cc\uc18c", "lat": "34.73858215393846", "lng": "128.50316338897042", "url": "/info/%ED%86%B5%EC%98%81%EC%8B%9C%ED%95%9C%EC%82%B0%EB%A9%B4%ED%98%B8%EB%91%90%EB%B3%B4%EA%B1%B4%EC%A7%84%EB%A3%8C%EC%86%8C-%EA%B2%BD%EC%83%81%EB%82%A8%EB%8F%84-%ED%86%B5%EC%98%81%EC%8B%9C-%ED%95%9C%EC%82%B0%EB%A9%B4/", "workingTime": ["-", "09:00~18:00", "09:00~18:00", "09:00~18:00", "09:00~18:00", "09:00~18:00", "-", "-"], "course": [""]}]