[{"name": "\uc81c\uc77c\uce58\uacfc\uc758\uc6d0", "lat": "35.69271821995488", "lng": "128.89065632519936", "url": "/info/%EC%A0%9C%EC%9D%BC%EC%B9%98%EA%B3%BC%EC%9D%98%EC%9B%90-%EA%B2%BD%EC%83%81%EB%B6%81%EB%8F%84-%EC%B2%AD%EB%8F%84%EA%B5%B0-%EA%B8%88%EC%B2%9C%EB%A9%B4/", "workingTime": ["-", "09:00~18:00", "09:00~18:00", "09:00~18:00", "09:00~18:00", "09:00~18:00", "09:00~13:00", "-"], "course": ["\uce58\uacfc"]}, {"name": "\uae08\ucc9c\uc758\uc6d0", "lat": "35.691663888888890", "lng": "128.892641666666663", "url": "/info/%EA%B8%88%EC%B2%9C%EC%9D%98%EC%9B%90-%EA%B2%BD%EC%83%81%EB%B6%81%EB%8F%84-%EC%B2%AD%EB%8F%84%EA%B5%B0-%EA%B8%88%EC%B2%9C%EB%A9%B4/", "workingTime": ["-", "08:00~17:30", "08:00~17:30", "08:00~17:30", "08:00~17:30", "08:00~17:30", "08:00~13:00", "09:00~13:00"], "course": ["\ub0b4\uacfc", "\uc18c\uc544\uccad\uc18c\ub144\uacfc", "\uc678\uacfc"]}, {"name": "\uae08\ucc9c\ubcf4\uac74\uc9c0\uc18c", "lat": "35.68726853617718", "lng": "128.8928564638832", "url": "/info/%EA%B8%88%EC%B2%9C%EB%B3%B4%EA%B1%B4%EC%A7%80%EC%86%8C-%EA%B2%BD%EC%83%81%EB%B6%81%EB%8F%84-%EC%B2%AD%EB%8F%84%EA%B5%B0-%EA%B8%88%EC%B2%9C%EB%A9%B4/", "workingTime": ["-", "09:00~18:00", "09:00~18:00", "09:00~18:00", "09:00~18:00", "09:00~18:00", "-", "-"], "course": [""]}, {"name": "\ub3d9\uace1\ud55c\uc758\uc6d0", "lat": "35.69408420370793", "lng": "128.8892867759133", "url": "/info/%EB%8F%99%EA%B3%A1%ED%95%9C%EC%9D%98%EC%9B%90-%EA%B2%BD%EC%83%81%EB%B6%81%EB%8F%84-%EC%B2%AD%EB%8F%84%EA%B5%B0-%EA%B8%88%EC%B2%9C%EB%A9%B4/", "workingTime": ["-", "09:00~18:00", "09:00~18:00", "09:00~18:00", "09:00~18:00", "09:00~18:00", "09:00~14:00", "-"], "course": ["\uce68\uad6c\uacfc", "\ud55c\ubc29\ub0b4\uacfc", "\ud55c\ubc29\ubd80\uc778\uacfc"]}, {"name": "\uc758\ub8cc\ubc95\uc778\uc0b0\ub3d9\uc758\ub8cc\uc7ac\ub2e8\uc0b0\ub3d9\uc694\uc591\ubcd1\uc6d0", "lat": "35.692425034444", "lng": "128.8947853904307", "url": "/info/%EC%9D%98%EB%A3%8C%EB%B2%95%EC%9D%B8%EC%82%B0%EB%8F%99%EC%9D%98%EB%A3%8C%EC%9E%AC%EB%8B%A8%EC%82%B0%EB%8F%99%EC%9A%94%EC%96%91%EB%B3%91%EC%9B%90-%EA%B2%BD%EC%83%81%EB%B6%81%EB%8F%84-%EC%B2%AD%EB%8F%84%EA%B5%B0-%EA%B8%88%EC%B2%9C%EB%A9%B4/", "workingTime": ["08:30~14:00(\uc5f0\ub77d\ud6c4\ubc29\ubb38\uc694\ub9dd)", "08:30~18:00", "08:30~18:00", "08:30~18:00", "08:30~18:00", "08:30~18:00", "08:30~15:00", "08:30~18:00"], "course": ["\uac00\uc815\uc758\ud559\uacfc", "\ub0b4\uacfc", "\uc18c\uc544\uccad\uc18c\ub144\uacfc", "\uc678\uacfc", "\uc815\ud615\uc678\uacfc"]}, {"name": "\ubc15\uace1\ubcf4\uac74\uc9c4\ub8cc\uc18c", "lat": "35.67007275401899", "lng": "128.91642677344865", "url": "/info/%EB%B0%95%EA%B3%A1%EB%B3%B4%EA%B1%B4%EC%A7%84%EB%A3%8C%EC%86%8C-%EA%B2%BD%EC%83%81%EB%B6%81%EB%8F%84-%EC%B2%AD%EB%8F%84%EA%B5%B0-%EA%B8%88%EC%B2%9C%EB%A9%B4/", "workingTime": ["-", "09:00~18:00", "09:00~18:00", "09:00~18:00", "09:00~18:00", "09:00~18:00", "-", "-"], "course": ["\ub0b4\uacfc", "\uc18c\uc544\uccad\uc18c\ub144\uacfc"]}]