[{"name": "\uc758\ub8cc\ubc95\uc778\uccad\uc554\uc758\ub8cc\uc7ac\ub2e8 \ud3ec\ud56d\uc1a1\ub77c\uc694\uc591\ubcd1\uc6d0", "lat": "36.228515636582784", "lng": "129.34380255807142", "url": "/info/%EC%9D%98%EB%A3%8C%EB%B2%95%EC%9D%B8%EC%B2%AD%EC%95%94%EC%9D%98%EB%A3%8C%EC%9E%AC%EB%8B%A8+%ED%8F%AC%ED%95%AD%EC%86%A1%EB%9D%BC%EC%9A%94%EC%96%91%EB%B3%91%EC%9B%90-%EA%B2%BD%EC%83%81%EB%B6%81%EB%8F%84-%ED%8F%AC%ED%95%AD%EC%8B%9C-%EC%86%A1%EB%9D%BC%EB%A9%B4/", "workingTime": ["-", "10:00~16:00", "10:00~16:00", "10:00~16:00", "10:00~16:00", "10:00~16:00", "10:00~12:00", "-"], "course": ["\uac00\uc815\uc758\ud559\uacfc", "\ub0b4\uacfc", "\ub9c8\ucde8\ud1b5\uc99d\uc758\ud559\uacfc", "\uc2e0\uacbd\uc678\uacfc", "\uc548\uacfc", "\uc678\uacfc", "\uc7ac\ud65c\uc758\ud559\uacfc", "\uce68\uad6c\uacfc", "\ud55c\ubc29\ub0b4\uacfc"]}, {"name": "\ubc29\uc11d\ubcf4\uac74\uc9c4\ub8cc\uc18c", "lat": "36.24010142498332", "lng": "129.38423366343306", "url": "/info/%EB%B0%A9%EC%84%9D%EB%B3%B4%EA%B1%B4%EC%A7%84%EB%A3%8C%EC%86%8C-%EA%B2%BD%EC%83%81%EB%B6%81%EB%8F%84-%ED%8F%AC%ED%95%AD%EC%8B%9C-%EC%86%A1%EB%9D%BC%EB%A9%B4/", "workingTime": ["-", "09:00~18:00", "09:00~18:00", "09:00~18:00", "09:00~18:00", "09:00~18:00", "09:00~18:00", "-"], "course": [""]}, {"name": "\uc0c1\uc1a1\ubcf4\uac74\uc9c4\ub8cc\uc18c", "lat": "36.20878379169438", "lng": "129.34226923226183", "url": "/info/%EC%83%81%EC%86%A1%EB%B3%B4%EA%B1%B4%EC%A7%84%EB%A3%8C%EC%86%8C-%EA%B2%BD%EC%83%81%EB%B6%81%EB%8F%84-%ED%8F%AC%ED%95%AD%EC%8B%9C-%EC%86%A1%EB%9D%BC%EB%A9%B4/", "workingTime": ["-", "09:00~18:00", "09:00~18:00", "09:00~18:00", "09:00~18:00", "09:00~18:00", "09:00~18:00", "-"], "course": [""]}, {"name": "\uc1a1\ub77c\uba74\ubcf4\uac74\uc9c0\uc18c", "lat": "36.22878743868136", "lng": "129.3566590807961", "url": "/info/%EC%86%A1%EB%9D%BC%EB%A9%B4%EB%B3%B4%EA%B1%B4%EC%A7%80%EC%86%8C-%EA%B2%BD%EC%83%81%EB%B6%81%EB%8F%84-%ED%8F%AC%ED%95%AD%EC%8B%9C-%EC%86%A1%EB%9D%BC%EB%A9%B4/", "workingTime": ["-", "09:00~18:00", "09:00~18:00", "09:00~18:00", "09:00~18:00", "09:00~18:00", "-", "-"], "course": [""]}, {"name": "\uc870\uc0ac\ubcf4\uac74\uc9c4\ub8cc\uc18c", "lat": "36.22097870970944", "lng": "129.38517882674927", "url": "/info/%EC%A1%B0%EC%82%AC%EB%B3%B4%EA%B1%B4%EC%A7%84%EB%A3%8C%EC%86%8C-%EA%B2%BD%EC%83%81%EB%B6%81%EB%8F%84-%ED%8F%AC%ED%95%AD%EC%8B%9C-%EC%86%A1%EB%9D%BC%EB%A9%B4/", "workingTime": ["-", "09:00~18:00", "09:00~18:00", "09:00~18:00", "09:00~18:00", "09:00~18:00", "09:00~18:00", "-"], "course": [""]}]