[{"name": "\uc8fd\uc7a5\ud55c\uc758\uc6d0", "lat": "36.1603667127918", "lng": "129.093242628999", "url": "/info/%EC%A3%BD%EC%9E%A5%ED%95%9C%EC%9D%98%EC%9B%90-%EA%B2%BD%EC%83%81%EB%B6%81%EB%8F%84-%ED%8F%AC%ED%95%AD%EC%8B%9C-%EC%A3%BD%EC%9E%A5%EB%A9%B4/", "workingTime": ["-", "09:00~18:00", "09:00~18:00", "09:00~18:00", "09:00~18:00", "09:00~18:00", "09:00~13:00", "-"], "course": ["\uce68\uad6c\uacfc", "\ud55c\ubc29\ub0b4\uacfc", "\ud55c\ubc29\ubd80\uc778\uacfc", "\ud55c\ubc29\uc18c\uc544\uacfc", "\ud55c\ubc29\uc2e0\uacbd\uc815\uc2e0\uacfc", "\ud55c\ubc29\uc548\uc774\ube44\uc778\ud6c4\ud53c\ubd80\uacfc"]}, {"name": "\ub450\ub9c8\ubcf4\uac74\uc9c4\ub8cc\uc18c", "lat": "36.16956875557221", "lng": "129.0246608289948", "url": "/info/%EB%91%90%EB%A7%88%EB%B3%B4%EA%B1%B4%EC%A7%84%EB%A3%8C%EC%86%8C-%EA%B2%BD%EC%83%81%EB%B6%81%EB%8F%84-%ED%8F%AC%ED%95%AD%EC%8B%9C-%EC%A3%BD%EC%9E%A5%EB%A9%B4/", "workingTime": ["-", "09:00~18:00", "09:00~18:00", "09:00~18:00", "09:00~18:00", "09:00~18:00", "09:00~18:00", "-"], "course": [""]}, {"name": "\uc0c1\uc625\ubcf4\uac74\uc9c4\ub8cc\uc18c", "lat": "36.24470900887989", "lng": "129.21440651836124", "url": "/info/%EC%83%81%EC%98%A5%EB%B3%B4%EA%B1%B4%EC%A7%84%EB%A3%8C%EC%86%8C-%EA%B2%BD%EC%83%81%EB%B6%81%EB%8F%84-%ED%8F%AC%ED%95%AD%EC%8B%9C-%EC%A3%BD%EC%9E%A5%EB%A9%B4/", "workingTime": ["-", "09:00~18:00", "09:00~18:00", "09:00~18:00", "09:00~18:00", "09:00~18:00", "09:00~18:00", "-"], "course": [""]}, {"name": "\uc0c1\uc0ac\ubcf4\uac74\uc9c4\ub8cc\uc18c", "lat": "36.24979576239382", "lng": "129.09255880690068", "url": "/info/%EC%83%81%EC%82%AC%EB%B3%B4%EA%B1%B4%EC%A7%84%EB%A3%8C%EC%86%8C-%EA%B2%BD%EC%83%81%EB%B6%81%EB%8F%84-%ED%8F%AC%ED%95%AD%EC%8B%9C-%EC%A3%BD%EC%9E%A5%EB%A9%B4/", "workingTime": ["-", "09:00~18:00", "09:00~18:00", "09:00~18:00", "09:00~18:00", "09:00~18:00", "09:00~18:00", "-"], "course": [""]}, {"name": "\uc8fd\uc7a5\uba74\ubcf4\uac74\uc9c0\uc18c", "lat": "36.160065507349806", "lng": "129.09544805884357", "url": "/info/%EC%A3%BD%EC%9E%A5%EB%A9%B4%EB%B3%B4%EA%B1%B4%EC%A7%80%EC%86%8C-%EA%B2%BD%EC%83%81%EB%B6%81%EB%8F%84-%ED%8F%AC%ED%95%AD%EC%8B%9C-%EC%A3%BD%EC%9E%A5%EB%A9%B4/", "workingTime": ["-", "09:00~18:00", "09:00~18:00", "09:00~18:00", "09:00~18:00", "09:00~18:00", "09:00~18:00", "-"], "course": [""]}, {"name": "\ud569\ub355\ubcf4\uac74\uc9c4\ub8cc\uc18c", "lat": "36.20172311252079", "lng": "129.09637506935928", "url": "/info/%ED%95%A9%EB%8D%95%EB%B3%B4%EA%B1%B4%EC%A7%84%EB%A3%8C%EC%86%8C-%EA%B2%BD%EC%83%81%EB%B6%81%EB%8F%84-%ED%8F%AC%ED%95%AD%EC%8B%9C-%EC%A3%BD%EC%9E%A5%EB%A9%B4/", "workingTime": ["-", "09:00~18:00", "09:00~18:00", "09:00~18:00", "09:00~18:00", "09:00~18:00", "09:00~18:00", "-"], "course": [""]}]