[{"name": "\uc11c\uc6b8\uc758\uc6d0", "lat": "36.06991726367609", "lng": "129.2103952316801", "url": "/info/%EC%84%9C%EC%9A%B8%EC%9D%98%EC%9B%90-%EA%B2%BD%EC%83%81%EB%B6%81%EB%8F%84-%ED%8F%AC%ED%95%AD%EC%8B%9C-%EA%B8%B0%EA%B3%84%EB%A9%B4/", "workingTime": ["-", "09:00~18:00", "09:00~18:00", "09:00~18:00", "09:00~18:00", "09:00~18:00", "09:00~13:00", "-"], "course": ["\ub0b4\uacfc"]}, {"name": "\uacbd\ub300\uc5f0\ud569\uc758\uc6d0", "lat": "36.07018331187491", "lng": "129.2101873561856", "url": "/info/%EA%B2%BD%EB%8C%80%EC%97%B0%ED%95%A9%EC%9D%98%EC%9B%90-%EA%B2%BD%EC%83%81%EB%B6%81%EB%8F%84-%ED%8F%AC%ED%95%AD%EC%8B%9C-%EA%B8%B0%EA%B3%84%EB%A9%B4/", "workingTime": ["-", "09:00~17:30", "09:00~17:30", "09:00~13:00", "09:00~17:30", "09:00~17:30", "09:00~13:00", "-"], "course": ["\ub0b4\uacfc"]}, {"name": "\uad6c\uc9c0\ubcf4\uac74\uc9c4\ub8cc\uc18c", "lat": "36.10591634934008", "lng": "129.14180299238927", "url": "/info/%EA%B5%AC%EC%A7%80%EB%B3%B4%EA%B1%B4%EC%A7%84%EB%A3%8C%EC%86%8C-%EA%B2%BD%EC%83%81%EB%B6%81%EB%8F%84-%ED%8F%AC%ED%95%AD%EC%8B%9C-%EA%B8%B0%EA%B3%84%EB%A9%B4/", "workingTime": ["-", "09:00~18:00", "09:00~18:00", "09:00~18:00", "09:00~18:00", "09:00~18:00", "09:00~18:00", "-"], "course": [""]}, {"name": "\uae30\uacc4\uba74\ubcf4\uac74\uc9c0\uc18c", "lat": "36.07204604853605", "lng": "129.20987291239447", "url": "/info/%EA%B8%B0%EA%B3%84%EB%A9%B4%EB%B3%B4%EA%B1%B4%EC%A7%80%EC%86%8C-%EA%B2%BD%EC%83%81%EB%B6%81%EB%8F%84-%ED%8F%AC%ED%95%AD%EC%8B%9C-%EA%B8%B0%EA%B3%84%EB%A9%B4/", "workingTime": ["-", "09:00~18:00", "09:00~18:00", "09:00~18:00", "09:00~18:00", "09:00~18:00", "09:00~18:00", "-"], "course": [""]}, {"name": "\uae30\uacc4\uc218\uce58\uacfc\uc758\uc6d0", "lat": "36.0710188596", "lng": "129.2106102837", "url": "/info/%EA%B8%B0%EA%B3%84%EC%88%98%EC%B9%98%EA%B3%BC%EC%9D%98%EC%9B%90-%EA%B2%BD%EC%83%81%EB%B6%81%EB%8F%84-%ED%8F%AC%ED%95%AD%EC%8B%9C-%EA%B8%B0%EA%B3%84%EB%A9%B4/", "workingTime": ["-", "09:00~17:00", "09:00~17:00", "09:00~17:00", "09:00~17:00", "09:00~17:00", "-", "-"], "course": ["\uce58\uacfc\ubcf4\ucca0\uacfc"]}, {"name": "\uae30\uacc4\uc5f0\ud569\uce58\uacfc\uc758\uc6d0", "lat": "36.06980280689473", "lng": "129.21112863519159", "url": "/info/%EA%B8%B0%EA%B3%84%EC%97%B0%ED%95%A9%EC%B9%98%EA%B3%BC%EC%9D%98%EC%9B%90-%EA%B2%BD%EC%83%81%EB%B6%81%EB%8F%84-%ED%8F%AC%ED%95%AD%EC%8B%9C-%EA%B8%B0%EA%B3%84%EB%A9%B4/", "workingTime": ["-", "09:00~17:00", "09:00~17:00", "09:00~17:00", "09:00~17:00", "09:00~17:00", "-", "-"], "course": ["\uce58\uacfc"]}, {"name": "\uae30\uacc4\uc758\uc6d0", "lat": "36.0696962366661", "lng": "129.21148443306515", "url": "/info/%EA%B8%B0%EA%B3%84%EC%9D%98%EC%9B%90-%EA%B2%BD%EC%83%81%EB%B6%81%EB%8F%84-%ED%8F%AC%ED%95%AD%EC%8B%9C-%EA%B8%B0%EA%B3%84%EB%A9%B4/", "workingTime": ["-", "08:30~18:00", "08:30~18:00", "08:30~18:00", "08:30~18:00", "08:30~18:00", "-", "-"], "course": ["\ub0b4\uacfc", "\uc678\uacfc"]}, {"name": "\uc720\uc815\ud55c\uc758\uc6d0", "lat": "36.069801969", "lng": "129.2111266864", "url": "/info/%EC%9C%A0%EC%A0%95%ED%95%9C%EC%9D%98%EC%9B%90-%EA%B2%BD%EC%83%81%EB%B6%81%EB%8F%84-%ED%8F%AC%ED%95%AD%EC%8B%9C-%EA%B8%B0%EA%B3%84%EB%A9%B4/", "workingTime": ["-", "09:00~18:00", "09:00~18:00", "09:00~18:00", "09:00~18:00", "09:00~18:00", "09:00~13:00", "-"], "course": ["\ud55c\ubc29\ub0b4\uacfc"]}, {"name": "\uae30\uacc4\ud55c\uc758\uc6d0", "lat": "", "lng": "", "url": "/info/%EA%B8%B0%EA%B3%84%ED%95%9C%EC%9D%98%EC%9B%90-%EA%B2%BD%EC%83%81%EB%B6%81%EB%8F%84-%ED%8F%AC%ED%95%AD%EC%8B%9C-%EA%B8%B0%EA%B3%84%EB%A9%B4/", "workingTime": ["-", "09:00~09:01", "09:00~09:01", "09:00~09:01", "09:00~09:01", "09:00~09:01", "-", "-"], "course": ["\uc0ac\uc0c1\uccb4\uc9c8\uacfc", "\uce68\uad6c\uacfc", "\ud55c\ubc29\ub0b4\uacfc", "\ud55c\ubc29\ubd80\uc778\uacfc", "\ud55c\ubc29\uc18c\uc544\uacfc", "\ud55c\ubc29\uc2e0\uacbd\uc815\uc2e0\uacfc", "\ud55c\ubc29\uc548\uc774\ube44\uc778\ud6c4\ud53c\ubd80\uacfc", "\ud55c\ubc29\uc7ac\ud65c\uc758\ud559\uacfc"]}]