[{"name": "\ubca0\uc2a4\ud2b8\uc2e0\uacbd\uacfc\uc758\uc6d0", "lat": "35.14290322068216", "lng": "126.92023001721583", "url": "/info/%EB%B2%A0%EC%8A%A4%ED%8A%B8%EC%8B%A0%EA%B2%BD%EA%B3%BC%EC%9D%98%EC%9B%90-%EA%B4%91%EC%A3%BC%EA%B4%91%EC%97%AD%EC%8B%9C-%EB%8F%99%EA%B5%AC-%EB%82%A8%EB%8F%99/", "workingTime": ["-", "09:00~17:00", "09:00~17:00", "09:00~17:00", "09:00~17:00", "09:00~17:00", "09:00~13:00", "-"], "course": ["\uc2e0\uacbd\uacfc"]}, {"name": "\ud478\ub978\uc548\uacfc\uc758\uc6d0", "lat": "35.144034528628815", "lng": "126.92141598068457", "url": "/info/%ED%91%B8%EB%A5%B8%EC%95%88%EA%B3%BC%EC%9D%98%EC%9B%90-%EA%B4%91%EC%A3%BC%EA%B4%91%EC%97%AD%EC%8B%9C-%EB%8F%99%EA%B5%AC-%EB%82%A8%EB%8F%99/", "workingTime": ["-", "07:30~17:30", "07:30~17:30", "07:30~17:30", "07:30~17:30", "07:30~17:30", "07:30~10:30", "-"], "course": ["\uc548\uacfc"]}, {"name": "\uac15\uce58\uacfc\uc758\uc6d0", "lat": "35.143111506455284", "lng": "126.92102676141275", "url": "/info/%EA%B0%95%EC%B9%98%EA%B3%BC%EC%9D%98%EC%9B%90-%EA%B4%91%EC%A3%BC%EA%B4%91%EC%97%AD%EC%8B%9C-%EB%8F%99%EA%B5%AC-%EB%82%A8%EB%8F%99/", "workingTime": ["-", "09:30~18:00", "09:30~18:00", "09:30~18:00", "14:00~18:00", "09:30~18:00", "-", "-"], "course": ["\uce58\uacfc"]}, {"name": "\uc774\uc2b9\ucca0\ud53c\ubd80\uacfc\uc758\uc6d0", "lat": "35.1436780073693", "lng": "126.920713782713", "url": "/info/%EC%9D%B4%EC%8A%B9%EC%B2%A0%ED%94%BC%EB%B6%80%EA%B3%BC%EC%9D%98%EC%9B%90-%EA%B4%91%EC%A3%BC%EA%B4%91%EC%97%AD%EC%8B%9C-%EB%8F%99%EA%B5%AC-%EB%82%A8%EB%8F%99/", "workingTime": ["-", "09:00~18:00", "09:00~18:00", "09:00~13:00", "09:00~18:00", "09:00~18:00", "09:00~13:00", "-"], "course": ["\ud53c\ubd80\uacfc"]}, {"name": "\ucd5c\uc601\uc815\uc2e0\uacfc\uc758\uc6d0", "lat": "35.144034985002165", "lng": "126.9214247591118", "url": "/info/%EC%B5%9C%EC%98%81%EC%A0%95%EC%8B%A0%EA%B3%BC%EC%9D%98%EC%9B%90-%EA%B4%91%EC%A3%BC%EA%B4%91%EC%97%AD%EC%8B%9C-%EB%8F%99%EA%B5%AC-%EB%82%A8%EB%8F%99/", "workingTime": ["-", "09:30~18:00", "09:30~18:00", "09:30~18:00", "13:30~18:00", "09:30~18:00", "09:00~13:00", "-"], "course": ["\uc2e0\uacbd\uacfc", "\uc815\uc2e0\uac74\uac15\uc758\ud559\uacfc"]}, {"name": "\ud0d1\ub9c8\ucde8\ud1b5\uc99d\uc758\ud559\uacfc\uc758\uc6d0", "lat": "35.1436773766", "lng": "126.9207140028", "url": "/info/%ED%83%91%EB%A7%88%EC%B7%A8%ED%86%B5%EC%A6%9D%EC%9D%98%ED%95%99%EA%B3%BC%EC%9D%98%EC%9B%90-%EA%B4%91%EC%A3%BC%EA%B4%91%EC%97%AD%EC%8B%9C-%EB%8F%99%EA%B5%AC-%EB%82%A8%EB%8F%99/", "workingTime": ["-", "09:00~18:00", "09:00~18:00", "09:00~18:00", "09:00~18:00", "09:00~18:00", "09:00~13:00", "-"], "course": ["\ub9c8\ucde8\ud1b5\uc99d\uc758\ud559\uacfc", "\uc2e0\uacbd\uacfc", "\uc2e0\uacbd\uc678\uacfc", "\uc7ac\ud65c\uc758\ud559\uacfc", "\uc815\ud615\uc678\uacfc"]}, {"name": "\uad11\uc8fc\uc2e0\uacbd\uacfc\uc758\uc6d0", "lat": "35.1432846009", "lng": "126.9210479775", "url": "/info/%EA%B4%91%EC%A3%BC%EC%8B%A0%EA%B2%BD%EA%B3%BC%EC%9D%98%EC%9B%90-%EA%B4%91%EC%A3%BC%EA%B4%91%EC%97%AD%EC%8B%9C-%EB%8F%99%EA%B5%AC-%EB%82%A8%EB%8F%99/", "workingTime": ["-", "09:00~17:30", "09:00~17:30", "09:00~12:30", "09:00~17:30", "09:00~17:30", "09:00~12:30", "-"], "course": ["\uc2e0\uacbd\uacfc"]}, {"name": "\uad11\uc8fc\uc7ac\ud65c\uc758\ud559\uacfc\uc758\uc6d0", "lat": "35.143279938175766", "lng": "126.92105438203441", "url": "/info/%EA%B4%91%EC%A3%BC%EC%9E%AC%ED%99%9C%EC%9D%98%ED%95%99%EA%B3%BC%EC%9D%98%EC%9B%90-%EA%B4%91%EC%A3%BC%EA%B4%91%EC%97%AD%EC%8B%9C-%EB%8F%99%EA%B5%AC-%EB%82%A8%EB%8F%99/", "workingTime": ["-", "09:00~17:30", "09:00~17:30", "09:00~17:30", "09:00~17:30", "09:00~17:30", "09:00~12:30", "-"], "course": ["\ub0b4\uacfc", "\ub9c8\ucde8\ud1b5\uc99d\uc758\ud559\uacfc", "\uc2e0\uacbd\uc678\uacfc", "\uc7ac\ud65c\uc758\ud559\uacfc", "\uc815\ud615\uc678\uacfc"]}, {"name": "\ubbf8\uc988\uc720\ub85c\uc5ec\uc131\uc758\uc6d0", "lat": "35.143122222222225", "lng": "126.920972222222218", "url": "/info/%EB%AF%B8%EC%A6%88%EC%9C%A0%EB%A1%9C%EC%97%AC%EC%84%B1%EC%9D%98%EC%9B%90-%EA%B4%91%EC%A3%BC%EA%B4%91%EC%97%AD%EC%8B%9C-%EB%8F%99%EA%B5%AC-%EB%82%A8%EB%8F%99/", "workingTime": ["-", "09:30~18:30", "09:30~18:30", "09:30~18:30", "17:00~20:30", "09:30~18:30", "09:30~15:30", "-"], "course": ["\ub0b4\uacfc", "\ube44\ub1e8\uc758\ud559\uacfc", "\uc0b0\ubd80\uc778\uacfc", "\uc18c\uc544\uccad\uc18c\ub144\uacfc", "\uc678\uacfc", "\uc815\uc2e0\uac74\uac15\uc758\ud559\uacfc", "\ud53c\ubd80\uacfc"]}, {"name": "\ubcf5\uc74c\ub0b4\uacfc\uc758\uc6d0", "lat": "35.1430927949835", "lng": "126.92101416001213", "url": "/info/%EB%B3%B5%EC%9D%8C%EB%82%B4%EA%B3%BC%EC%9D%98%EC%9B%90-%EA%B4%91%EC%A3%BC%EA%B4%91%EC%97%AD%EC%8B%9C-%EB%8F%99%EA%B5%AC-%EB%82%A8%EB%8F%99/", "workingTime": ["-", "08:30~17:30", "08:30~17:30", "08:30~17:30", "08:30~17:30", "08:30~17:30", "08:30~12:30", "-"], "course": ["\ub0b4\uacfc", "\uc18c\uc544\uccad\uc18c\ub144\uacfc"]}, {"name": "\uc544\uc774\uc0ac\ub791\uc815\uc2e0\uac74\uac15\uc758\ud559\uacfc\uc758\uc6d0", "lat": "35.143120518816765", "lng": "126.92102483235217", "url": "/info/%EC%95%84%EC%9D%B4%EC%82%AC%EB%9E%91%EC%A0%95%EC%8B%A0%EA%B1%B4%EA%B0%95%EC%9D%98%ED%95%99%EA%B3%BC%EC%9D%98%EC%9B%90-%EA%B4%91%EC%A3%BC%EA%B4%91%EC%97%AD%EC%8B%9C-%EB%8F%99%EA%B5%AC-%EB%82%A8%EB%8F%99/", "workingTime": ["-", "09:30~17:10", "09:30~17:10", "09:30~17:10", "09:30~17:10", "09:30~17:10", "08:40~12:00", "-"], "course": ["\uc2e0\uacbd\uacfc", "\uc815\uc2e0\uac74\uac15\uc758\ud559\uacfc"]}, {"name": "\uc624\ubd09\ub82c\ube44\ub1e8\uae30\uacfc\uc758\uc6d0", "lat": "35.144085275", "lng": "126.9214554218", "url": "/info/%EC%98%A4%EB%B4%89%EB%A0%AC%EB%B9%84%EB%87%A8%EA%B8%B0%EA%B3%BC%EC%9D%98%EC%9B%90-%EA%B4%91%EC%A3%BC%EA%B4%91%EC%97%AD%EC%8B%9C-%EB%8F%99%EA%B5%AC-%EB%82%A8%EB%8F%99/", "workingTime": ["-", "09:00~17:00", "09:00~17:00", "09:00~13:00", "09:00~17:00", "09:00~17:00", "09:00~12:30", "-"], "course": ["\ube44\ub1e8\uc758\ud559\uacfc"]}]