[{"name": "\ud55c\uc77c\uc548\uacfc\uc758\uc6d0", "lat": "35.87035622500482", "lng": "128.59084626364702", "url": "/info/%ED%95%9C%EC%9D%BC%EC%95%88%EA%B3%BC%EC%9D%98%EC%9B%90-%EB%8C%80%EA%B5%AC%EA%B4%91%EC%97%AD%EC%8B%9C-%EC%A4%91%EA%B5%AC-%EC%A2%85%EB%A1%9C1%EA%B0%80/", "workingTime": ["-", "09:30~18:00", "09:30~18:00", "09:30~18:00", "09:30~18:00", "09:30~18:00", "09:30~13:00", "-"], "course": ["\uc131\ud615\uc678\uacfc", "\uc548\uacfc", "\uc678\uacfc"]}, {"name": "\uc6a9\uce58\uacfc\uc758\uc6d0", "lat": "35.870864089122534", "lng": "128.5912151365999", "url": "/info/%EC%9A%A9%EC%B9%98%EA%B3%BC%EC%9D%98%EC%9B%90-%EB%8C%80%EA%B5%AC%EA%B4%91%EC%97%AD%EC%8B%9C-%EC%A4%91%EA%B5%AC-%EC%A2%85%EB%A1%9C1%EA%B0%80/", "workingTime": ["-", "09:30~18:00", "09:30~18:00", "09:30~18:00", "09:30~18:00", "09:30~18:00", "09:30~15:00", "-"], "course": ["\uad6c\uac15\uc545\uc548\uba74\uc678\uacfc", "\uc608\ubc29\uce58\uacfc"]}, {"name": "\uc774\ud64d\ucca0\ud55c\uc758\uc6d0", "lat": "35.86987707479686", "lng": "128.59069962528505", "url": "/info/%EC%9D%B4%ED%99%8D%EC%B2%A0%ED%95%9C%EC%9D%98%EC%9B%90-%EB%8C%80%EA%B5%AC%EA%B4%91%EC%97%AD%EC%8B%9C-%EC%A4%91%EA%B5%AC-%EC%A2%85%EB%A1%9C1%EA%B0%80/", "workingTime": ["-", "09:00~18:00", "09:00~20:00", "09:00~18:00", "09:00~13:00", "09:00~20:00", "09:00~13:00", "-"], "course": ["\uc0ac\uc0c1\uccb4\uc9c8\uacfc", "\uce68\uad6c\uacfc", "\ud55c\ubc29\ub0b4\uacfc", "\ud55c\ubc29\ubd80\uc778\uacfc", "\ud55c\ubc29\uc18c\uc544\uacfc", "\ud55c\ubc29\uc2e0\uacbd\uc815\uc2e0\uacfc", "\ud55c\ubc29\uc548\uc774\ube44\uc778\ud6c4\ud53c\ubd80\uacfc", "\ud55c\ubc29\uc7ac\ud65c\uc758\ud559\uacfc"]}, {"name": "\uc885\ub85c\uce58\uacfc\uc758\uc6d0", "lat": "35.87090399288659", "lng": "128.59119600579706", "url": "/info/%EC%A2%85%EB%A1%9C%EC%B9%98%EA%B3%BC%EC%9D%98%EC%9B%90-%EB%8C%80%EA%B5%AC%EA%B4%91%EC%97%AD%EC%8B%9C-%EC%A4%91%EA%B5%AC-%EC%A2%85%EB%A1%9C1%EA%B0%80/", "workingTime": ["-", "10:00~17:00", "10:00~17:00", "10:00~17:00", "10:00~17:00", "10:00~17:00", "-", "-"], "course": ["\uce58\uacfc"]}, {"name": "\ubc15\uc9c4\ud64d\uc815\ud615\uc678\uacfc\uc758\uc6d0", "lat": "35.87058928083066", "lng": "128.59250390223923", "url": "/info/%EB%B0%95%EC%A7%84%ED%99%8D%EC%A0%95%ED%98%95%EC%99%B8%EA%B3%BC%EC%9D%98%EC%9B%90-%EB%8C%80%EA%B5%AC%EA%B4%91%EC%97%AD%EC%8B%9C-%EC%A4%91%EA%B5%AC-%EC%A2%85%EB%A1%9C1%EA%B0%80/", "workingTime": ["-", "10:00~16:00", "10:00~16:00", "10:00~16:00", "10:00~16:00", "10:00~16:00", "-", "-"], "course": ["\uc815\ud615\uc678\uacfc"]}, {"name": "\uae40\uc7a5\ud658\uc774\ube44\uc778\ud6c4\uacfc\uc758\uc6d0", "lat": "35.87082566410881", "lng": "128.59126820759218", "url": "/info/%EA%B9%80%EC%9E%A5%ED%99%98%EC%9D%B4%EB%B9%84%EC%9D%B8%ED%9B%84%EA%B3%BC%EC%9D%98%EC%9B%90-%EB%8C%80%EA%B5%AC%EA%B4%91%EC%97%AD%EC%8B%9C-%EC%A4%91%EA%B5%AC-%EC%A2%85%EB%A1%9C1%EA%B0%80/", "workingTime": ["-", "09:00~18:00", "09:00~18:00", "09:00~18:00", "09:00~18:00", "09:00~18:00", "09:00~16:00", "-"], "course": ["\uc774\ube44\uc778\ud6c4\uacfc"]}, {"name": "\uc2ec\uc774\ube44\uc778\ud6c4\uacfc\uc758\uc6d0", "lat": "35.87046407253419", "lng": "128.59168431891615", "url": "/info/%EC%8B%AC%EC%9D%B4%EB%B9%84%EC%9D%B8%ED%9B%84%EA%B3%BC%EC%9D%98%EC%9B%90-%EB%8C%80%EA%B5%AC%EA%B4%91%EC%97%AD%EC%8B%9C-%EC%A4%91%EA%B5%AC-%EC%A2%85%EB%A1%9C1%EA%B0%80/", "workingTime": ["-", "09:00~18:00", "09:00~18:00", "09:00~18:00", "09:00~18:00", "09:00~18:00", "09:00~15:00", "-"], "course": ["\uc774\ube44\uc778\ud6c4\uacfc"]}, {"name": "\uae40\ucda9\ub0a8\ube44\ub1e8\uae30\uacfc\uc758\uc6d0", "lat": "35.870807845377016", "lng": "128.59117526134585", "url": "/info/%EA%B9%80%EC%B6%A9%EB%82%A8%EB%B9%84%EB%87%A8%EA%B8%B0%EA%B3%BC%EC%9D%98%EC%9B%90-%EB%8C%80%EA%B5%AC%EA%B4%91%EC%97%AD%EC%8B%9C-%EC%A4%91%EA%B5%AC-%EC%A2%85%EB%A1%9C1%EA%B0%80/", "workingTime": ["-", "09:30~18:00", "09:30~18:00", "09:30~18:00", "09:30~18:00", "09:30~18:00", "09:30~13:00", "-"], "course": ["\ube44\ub1e8\uc758\ud559\uacfc"]}, {"name": "\ubc31\ub9cc\uc774\uc758\uc6d0", "lat": "35.87048856520501", "lng": "128.59168218759095", "url": "/info/%EB%B0%B1%EB%A7%8C%EC%9D%B4%EC%9D%98%EC%9B%90-%EB%8C%80%EA%B5%AC%EA%B4%91%EC%97%AD%EC%8B%9C-%EC%A4%91%EA%B5%AC-%EC%A2%85%EB%A1%9C1%EA%B0%80/", "workingTime": ["-", "09:30~18:30", "09:30~18:30", "09:30~18:30", "09:30~18:30", "09:30~18:30", "09:30~13:00", "-"], "course": ["\uc131\ud615\uc678\uacfc"]}]