[{"name": "\ud0c0\uc6cc\uce58\uacfc\uc758\uc6d0", "lat": "37.55915986374149", "lng": "126.97332669128893", "url": "/info/%ED%83%80%EC%9B%8C%EC%B9%98%EA%B3%BC%EC%9D%98%EC%9B%90-%EC%84%9C%EC%9A%B8%ED%8A%B9%EB%B3%84%EC%8B%9C-%EC%A4%91%EA%B5%AC-%EB%B4%89%EB%9E%98%EB%8F%991%EA%B0%80/", "workingTime": ["-", "10:00~19:00", "10:00~19:00", "10:00~19:00", "10:00~19:00", "10:00~19:00", "10:00~13:00", "-"], "course": ["\uce58\uacfc"]}, {"name": "\ub374\ud0c0\ud53c\uc544\uce58\uacfc\uc758\uc6d0", "lat": "37.558117427645776", "lng": "126.97218552315786", "url": "/info/%EB%8D%B4%ED%83%80%ED%94%BC%EC%95%84%EC%B9%98%EA%B3%BC%EC%9D%98%EC%9B%90-%EC%84%9C%EC%9A%B8%ED%8A%B9%EB%B3%84%EC%8B%9C-%EC%A4%91%EA%B5%AC-%EB%B4%89%EB%9E%98%EB%8F%991%EA%B0%80/", "workingTime": ["-", "10:00~18:00", "10:00~18:00", "10:00~18:00", "10:00~18:00", "10:00~18:00", "-", "-"], "course": ["\uce58\uacfc"]}, {"name": "\ub298\ud478\ub978\uce58\uacfc\uc758\uc6d0", "lat": "37.55956367150102", "lng": "126.9740237197311", "url": "/info/%EB%8A%98%ED%91%B8%EB%A5%B8%EC%B9%98%EA%B3%BC%EC%9D%98%EC%9B%90-%EC%84%9C%EC%9A%B8%ED%8A%B9%EB%B3%84%EC%8B%9C-%EC%A4%91%EA%B5%AC-%EB%B4%89%EB%9E%98%EB%8F%991%EA%B0%80/", "workingTime": ["-", "09:30~18:00", "09:30~20:00", "09:30~18:00", "09:30~20:00", "09:30~18:00", "09:30~13:00", "-"], "course": ["\uce58\uacfc"]}, {"name": "\uace8\ub4dc\ub9cc\ube44\ub1e8\uae30\uacfc\uc758\uc6d0", "lat": "37.559090884187604", "lng": "126.97384662706187", "url": "/info/%EA%B3%A8%EB%93%9C%EB%A7%8C%EB%B9%84%EB%87%A8%EA%B8%B0%EA%B3%BC%EC%9D%98%EC%9B%90-%EC%84%9C%EC%9A%B8%ED%8A%B9%EB%B3%84%EC%8B%9C-%EC%A4%91%EA%B5%AC-%EB%B4%89%EB%9E%98%EB%8F%991%EA%B0%80/", "workingTime": ["-", "10:00~21:00", "10:00~19:00", "10:00~19:00", "10:00~21:00", "10:00~19:00", "09:00~16:00", "-"], "course": ["\ube44\ub1e8\uc758\ud559\uacfc"]}, {"name": "\uc11c\uc6b8\uc5ed\ud5c8\ube0c\uce58\uacfc\uc758\uc6d0", "lat": "37.5592783435", "lng": "126.9740819742", "url": "/info/%EC%84%9C%EC%9A%B8%EC%97%AD%ED%97%88%EB%B8%8C%EC%B9%98%EA%B3%BC%EC%9D%98%EC%9B%90-%EC%84%9C%EC%9A%B8%ED%8A%B9%EB%B3%84%EC%8B%9C-%EC%A4%91%EA%B5%AC-%EB%B4%89%EB%9E%98%EB%8F%991%EA%B0%80/", "workingTime": ["-", "10:00~20:30", "10:00~18:30", "10:00~20:30", "10:00~18:30", "10:00~20:30", "10:00~12:30", "-"], "course": ["\uce58\uacfc"]}, {"name": "\ubd09\ub798\ud55c\uc758\uc6d0", "lat": "37.5593970067", "lng": "126.9728867594", "url": "/info/%EB%B4%89%EB%9E%98%ED%95%9C%EC%9D%98%EC%9B%90-%EC%84%9C%EC%9A%B8%ED%8A%B9%EB%B3%84%EC%8B%9C-%EC%A4%91%EA%B5%AC-%EB%B4%89%EB%9E%98%EB%8F%991%EA%B0%80/", "workingTime": ["-", "10:00~19:00", "10:00~19:00", "10:00~19:00", "10:00~19:00", "10:00~19:00", "-", "-"], "course": ["\uc0ac\uc0c1\uccb4\uc9c8\uacfc", "\uce68\uad6c\uacfc", "\ud55c\ubc29\ub0b4\uacfc", "\ud55c\ubc29\ubd80\uc778\uacfc", "\ud55c\ubc29\uc18c\uc544\uacfc", "\ud55c\ubc29\uc2e0\uacbd\uc815\uc2e0\uacfc", "\ud55c\ubc29\uc548\uc774\ube44\uc778\ud6c4\ud53c\ubd80\uacfc", "\ud55c\ubc29\uc7ac\ud65c\uc758\ud559\uacfc"]}]