[{"name": "\uae40\uc815\uc5f4\uce58\uacfc\uc758\uc6d0", "lat": "35.555433333333333", "lng": "129.321349999999995", "url": "/info/%EA%B9%80%EC%A0%95%EC%97%B4%EC%B9%98%EA%B3%BC%EC%9D%98%EC%9B%90-%EC%9A%B8%EC%82%B0%EA%B4%91%EC%97%AD%EC%8B%9C-%EC%A4%91%EA%B5%AC-%EC%84%B1%EB%82%A8%EB%8F%99/", "workingTime": ["-", "09:00~17:00", "09:00~17:00", "09:00~17:00", "09:00~17:00", "09:00~17:00", "09:00~11:30", "-"], "course": ["\uad6c\uac15\ub0b4\uacfc", "\uad6c\uac15\uc545\uc548\uba74\uc678\uacfc", "\uc18c\uc544\uce58\uacfc", "\uc608\ubc29\uce58\uacfc", "\uce58\uacfc", "\uce58\uacfc\ubcf4\uc874\uacfc", "\uce58\uacfc\ubcf4\ucca0\uacfc", "\uce58\uc8fc\uacfc"]}, {"name": "\uc2dc\ubbfc\uce58\uacfc\uc758\uc6d0", "lat": "35.554833333333335", "lng": "129.321547222222222", "url": "/info/%EC%8B%9C%EB%AF%BC%EC%B9%98%EA%B3%BC%EC%9D%98%EC%9B%90-%EC%9A%B8%EC%82%B0%EA%B4%91%EC%97%AD%EC%8B%9C-%EC%A4%91%EA%B5%AC-%EC%84%B1%EB%82%A8%EB%8F%99/", "workingTime": ["-", "10:00~18:00", "10:00~18:00", "10:00~18:00", "10:00~18:00", "10:00~18:00", "-", "-"], "course": ["\uce58\uacfc"]}, {"name": "\uc778\uc7ac\uce58\uacfc\uc758\uc6d0", "lat": "35.5552673288235", "lng": "129.320175020502", "url": "/info/%EC%9D%B8%EC%9E%AC%EC%B9%98%EA%B3%BC%EC%9D%98%EC%9B%90-%EC%9A%B8%EC%82%B0%EA%B4%91%EC%97%AD%EC%8B%9C-%EC%A4%91%EA%B5%AC-%EC%84%B1%EB%82%A8%EB%8F%99/", "workingTime": ["-", "09:00~17:30", "09:00~17:30", "09:00~17:30", "09:00~17:30", "09:00~17:30", "09:00~12:30", "-"], "course": ["\uce58\uacfc"]}, {"name": "\uc544\ub85c\ub9c8\ubca8\ud53c\ubd80\uacfc\uc758\uc6d0", "lat": "35.5558876575635", "lng": "129.32149237596673", "url": "/info/%EC%95%84%EB%A1%9C%EB%A7%88%EB%B2%A8%ED%94%BC%EB%B6%80%EA%B3%BC%EC%9D%98%EC%9B%90-%EC%9A%B8%EC%82%B0%EA%B4%91%EC%97%AD%EC%8B%9C-%EC%A4%91%EA%B5%AC-%EC%84%B1%EB%82%A8%EB%8F%99/", "workingTime": ["-", "09:30~18:00", "09:30~18:00", "09:30~12:00", "09:30~18:00", "09:30~18:00", "09:30~12:00", "-"], "course": ["\uac00\uc815\uc758\ud559\uacfc", "\ube44\ub1e8\uc758\ud559\uacfc", "\uc131\ud615\uc678\uacfc", "\ud53c\ubd80\uacfc"]}, {"name": "\uc774\ub300\uc6d0\uc548\uacfc\uc758\uc6d0", "lat": "35.555444444444447", "lng": "129.321244444444432", "url": "/info/%EC%9D%B4%EB%8C%80%EC%9B%90%EC%95%88%EA%B3%BC%EC%9D%98%EC%9B%90-%EC%9A%B8%EC%82%B0%EA%B4%91%EC%97%AD%EC%8B%9C-%EC%A4%91%EA%B5%AC-%EC%84%B1%EB%82%A8%EB%8F%99/", "workingTime": ["-", "09:30~18:30", "09:30~18:30", "09:30~18:30", "09:30~18:30", "09:30~18:30", "09:30~14:00", "-"], "course": ["\uc548\uacfc"]}, {"name": "\uc774\ud654\uc0b0\ubd80\uc778\uacfc\uc758\uc6d0", "lat": "35.555888888888887", "lng": "129.321441666666658", "url": "/info/%EC%9D%B4%ED%99%94%EC%82%B0%EB%B6%80%EC%9D%B8%EA%B3%BC%EC%9D%98%EC%9B%90-%EC%9A%B8%EC%82%B0%EA%B4%91%EC%97%AD%EC%8B%9C-%EC%A4%91%EA%B5%AC-%EC%84%B1%EB%82%A8%EB%8F%99/", "workingTime": ["-", "09:30~18:00", "09:30~18:00", "09:30~18:00", "09:30~18:00", "09:30~18:00", "09:30~12:00", "-"], "course": ["\uc0b0\ubd80\uc778\uacfc"]}, {"name": "\uc804\uc7ac\uae30\uc774\ube44\uc778\ud6c4\uacfc\uc758\uc6d0", "lat": "35.555169444444445", "lng": "129.321227777777779", "url": "/info/%EC%A0%84%EC%9E%AC%EA%B8%B0%EC%9D%B4%EB%B9%84%EC%9D%B8%ED%9B%84%EA%B3%BC%EC%9D%98%EC%9B%90-%EC%9A%B8%EC%82%B0%EA%B4%91%EC%97%AD%EC%8B%9C-%EC%A4%91%EA%B5%AC-%EC%84%B1%EB%82%A8%EB%8F%99/", "workingTime": ["-", "09:30~17:30", "09:30~17:30", "09:30~12:30", "09:30~17:30", "09:30~17:30", "09:30~12:30", "-"], "course": ["\uc774\ube44\uc778\ud6c4\uacfc"]}, {"name": "\ud478\ub978\ub0b4\uacfc\uc758\uc6d0", "lat": "35.556997222222222", "lng": "129.320830555555546", "url": "/info/%ED%91%B8%EB%A5%B8%EB%82%B4%EA%B3%BC%EC%9D%98%EC%9B%90-%EC%9A%B8%EC%82%B0%EA%B4%91%EC%97%AD%EC%8B%9C-%EC%A4%91%EA%B5%AC-%EC%84%B1%EB%82%A8%EB%8F%99/", "workingTime": ["-", "09:00~18:30", "09:00~18:30", "09:00~18:30", "09:00~18:30", "09:00~18:30", "09:00~13:00", "-"], "course": ["\ub0b4\uacfc", "\uc18c\uc544\uccad\uc18c\ub144\uacfc"]}, {"name": "\ud55c\uc591\uc815\uc2e0\uacfc\uc758\uc6d0", "lat": "35.555305555555556", "lng": "129.320422222222220", "url": "/info/%ED%95%9C%EC%96%91%EC%A0%95%EC%8B%A0%EA%B3%BC%EC%9D%98%EC%9B%90-%EC%9A%B8%EC%82%B0%EA%B4%91%EC%97%AD%EC%8B%9C-%EC%A4%91%EA%B5%AC-%EC%84%B1%EB%82%A8%EB%8F%99/", "workingTime": ["-", "10:00~18:30", "10:00~18:30", "10:00~13:00", "10:00~18:30", "10:00~18:30", "10:00~13:00", "-"], "course": ["\uc2e0\uacbd\uacfc", "\uc815\uc2e0\uac74\uac15\uc758\ud559\uacfc"]}, {"name": "\uacbd\uc0c1\ube44\ub1e8\uae30\uacfc\uc758\uc6d0", "lat": "35.55510791944725", "lng": "129.32108024171282", "url": "/info/%EA%B2%BD%EC%83%81%EB%B9%84%EB%87%A8%EA%B8%B0%EA%B3%BC%EC%9D%98%EC%9B%90-%EC%9A%B8%EC%82%B0%EA%B4%91%EC%97%AD%EC%8B%9C-%EC%A4%91%EA%B5%AC-%EC%84%B1%EB%82%A8%EB%8F%99/", "workingTime": ["-", "09:30~18:00", "09:30~18:00", "09:30~18:00", "09:30~18:00", "09:30~18:00", "09:30~13:00", "-"], "course": ["\ube44\ub1e8\uc758\ud559\uacfc", "\ud53c\ubd80\uacfc"]}, {"name": "\ubbf8\ub798\uc0b0\ubd80\uc778\uacfc\uc758\uc6d0", "lat": "35.555608333333332", "lng": "129.318727777777781", "url": "/info/%EB%AF%B8%EB%9E%98%EC%82%B0%EB%B6%80%EC%9D%B8%EA%B3%BC%EC%9D%98%EC%9B%90-%EC%9A%B8%EC%82%B0%EA%B4%91%EC%97%AD%EC%8B%9C-%EC%A4%91%EA%B5%AC-%EC%84%B1%EB%82%A8%EB%8F%99/", "workingTime": ["-", "09:00~18:00", "09:00~18:00", "09:00~18:00", "09:00~18:00", "09:00~18:10", "09:00~15:30", "-"], "course": ["\uac00\uc815\uc758\ud559\uacfc", "\ub0b4\uacfc", "\uc0b0\ubd80\uc778\uacfc", "\ud53c\ubd80\uacfc"]}, {"name": "\uc11c\uc6b8\uc131\ud615\uc678\uacfc\uc758\uc6d0", "lat": "35.553197222222224", "lng": "129.319108333333332", "url": "/info/%EC%84%9C%EC%9A%B8%EC%84%B1%ED%98%95%EC%99%B8%EA%B3%BC%EC%9D%98%EC%9B%90-%EC%9A%B8%EC%82%B0%EA%B4%91%EC%97%AD%EC%8B%9C-%EC%A4%91%EA%B5%AC-%EC%84%B1%EB%82%A8%EB%8F%99/", "workingTime": ["-", "09:00~18:30", "09:00~18:30", "09:00~14:00", "09:00~18:30", "09:00~18:30", "09:00~14:00", "-"], "course": ["\uc131\ud615\uc678\uacfc"]}, {"name": "\uac15\ub0b4\uacfc\uc758\uc6d0", "lat": "35.554250000000003", "lng": "129.318116666666668", "url": "/info/%EA%B0%95%EB%82%B4%EA%B3%BC%EC%9D%98%EC%9B%90-%EC%9A%B8%EC%82%B0%EA%B4%91%EC%97%AD%EC%8B%9C-%EC%A4%91%EA%B5%AC-%EC%84%B1%EB%82%A8%EB%8F%99/", "workingTime": ["-", "09:00~17:00", "09:00~17:00", "09:00~17:00", "09:00~17:00", "09:00~17:00", "09:00~12:00", "-"], "course": ["\ub0b4\uacfc"]}]