[{"name": "\ubcc0\uc0b0\uc758\uc6d0", "lat": "35.664310091632586", "lng": "126.52870037397012", "url": "/info/%EB%B3%80%EC%82%B0%EC%9D%98%EC%9B%90-%EC%A0%84%EB%9D%BC%EB%B6%81%EB%8F%84-%EB%B6%80%EC%95%88%EA%B5%B0-%EB%B3%80%EC%82%B0%EB%A9%B4/", "workingTime": ["-", "09:00~18:00", "09:00~18:00", "09:00~18:00", "09:00~18:00", "09:00~18:00", "09:00~12:30", "-"], "course": ["\ud749\ubd80\uc678\uacfc"]}, {"name": "\uaca9\ud3ec\ud55c\uc758\uc6d0", "lat": "35.628052023363495", "lng": "126.47359022500493", "url": "/info/%EA%B2%A9%ED%8F%AC%ED%95%9C%EC%9D%98%EC%9B%90-%EC%A0%84%EB%9D%BC%EB%B6%81%EB%8F%84-%EB%B6%80%EC%95%88%EA%B5%B0-%EB%B3%80%EC%82%B0%EB%A9%B4/", "workingTime": ["-", "08:00~18:00", "08:00~18:00", "08:00~18:00", "08:00~18:00", "08:00~18:00", "08:00~13:00", "-"], "course": ["\uc0ac\uc0c1\uccb4\uc9c8\uacfc", "\uce68\uad6c\uacfc", "\ud55c\ubc29\ub0b4\uacfc", "\ud55c\ubc29\ubd80\uc778\uacfc", "\ud55c\ubc29\uc18c\uc544\uacfc", "\ud55c\ubc29\uc2e0\uacbd\uc815\uc2e0\uacfc", "\ud55c\ubc29\uc548\uc774\ube44\uc778\ud6c4\ud53c\ubd80\uacfc", "\ud55c\ubc29\uc7ac\ud65c\uc758\ud559\uacfc"]}, {"name": "\uaca9\ud3ec\uce58\uacfc\uc758\uc6d0", "lat": "35.6283309027878", "lng": "126.47388424111412", "url": "/info/%EA%B2%A9%ED%8F%AC%EC%B9%98%EA%B3%BC%EC%9D%98%EC%9B%90-%EC%A0%84%EB%9D%BC%EB%B6%81%EB%8F%84-%EB%B6%80%EC%95%88%EA%B5%B0-%EB%B3%80%EC%82%B0%EB%A9%B4/", "workingTime": ["-", "09:30~18:00", "09:30~18:00", "09:30~18:00", "09:30~18:00", "09:30~18:00", "09:30~12:30", "-"], "course": ["\uce58\uacfc"]}, {"name": "\uaca9\ud3ec\uc9c4\ub8cc\uc18c", "lat": "35.619882268684435", "lng": "126.4742708720604", "url": "/info/%EA%B2%A9%ED%8F%AC%EC%A7%84%EB%A3%8C%EC%86%8C-%EC%A0%84%EB%9D%BC%EB%B6%81%EB%8F%84-%EB%B6%80%EC%95%88%EA%B5%B0-%EB%B3%80%EC%82%B0%EB%A9%B4/", "workingTime": ["-", "09:00~18:00", "09:00~18:00", "09:00~18:00", "09:00~18:00", "09:00~18:00", "-", "-"], "course": ["\ub0b4\uacfc"]}, {"name": "\ubcc0\uc0b0\ubcf4\uac74\uc9c0\uc18c", "lat": "35.66349477197797", "lng": "126.52811350549753", "url": "/info/%EB%B3%80%EC%82%B0%EB%B3%B4%EA%B1%B4%EC%A7%80%EC%86%8C-%EC%A0%84%EB%9D%BC%EB%B6%81%EB%8F%84-%EB%B6%80%EC%95%88%EA%B5%B0-%EB%B3%80%EC%82%B0%EB%A9%B4/", "workingTime": ["-", "09:00~18:00", "09:00~18:00", "09:00~18:00", "09:00~18:00", "09:00~18:00", "-", "-"], "course": ["\ub0b4\uacfc"]}]