[{"name": "\uc5b4\ubd88\ubcf4\uac74\uc9c4\ub8cc\uc18c", "lat": "34.339139646067444", "lng": "126.47264730386631", "url": "/info/%EC%96%B4%EB%B6%88%EB%B3%B4%EA%B1%B4%EC%A7%84%EB%A3%8C%EC%86%8C-%EC%A0%84%EB%9D%BC%EB%82%A8%EB%8F%84-%ED%95%B4%EB%82%A8%EA%B5%B0-%EC%86%A1%EC%A7%80%EB%A9%B4/", "workingTime": ["-", "09:00~18:00", "09:00~18:00", "09:00~18:00", "09:00~18:00", "09:00~18:00", "-", "-"], "course": ["\ub0b4\uacfc"]}, {"name": "\ud55c\uc0ac\ub791\uc758\uc6d0", "lat": "34.37080873203745", "lng": "126.52107054607866", "url": "/info/%ED%95%9C%EC%82%AC%EB%9E%91%EC%9D%98%EC%9B%90-%EC%A0%84%EB%9D%BC%EB%82%A8%EB%8F%84-%ED%95%B4%EB%82%A8%EA%B5%B0-%EC%86%A1%EC%A7%80%EB%A9%B4/", "workingTime": ["-", "08:00~16:00", "08:00~16:00", "08:00~16:00", "08:00~16:00", "08:00~16:00", "08:00~12:30", "-"], "course": ["\ub0b4\uacfc", "\ub9c8\ucde8\ud1b5\uc99d\uc758\ud559\uacfc", "\uc18c\uc544\uccad\uc18c\ub144\uacfc", "\uc678\uacfc", "\uc774\ube44\uc778\ud6c4\uacfc", "\ud53c\ubd80\uacfc"]}, {"name": "\ud638\uc554\uc758\uc6d0", "lat": "34.36912191535138", "lng": "126.51883611168316", "url": "/info/%ED%98%B8%EC%95%94%EC%9D%98%EC%9B%90-%EC%A0%84%EB%9D%BC%EB%82%A8%EB%8F%84-%ED%95%B4%EB%82%A8%EA%B5%B0-%EC%86%A1%EC%A7%80%EB%A9%B4/", "workingTime": ["-", "08:00~17:00", "08:00~17:00", "08:00~17:00", "08:00~17:00", "08:00~17:00", "08:00~12:30", "08:00~12:30"], "course": ["\ub0b4\uacfc", "\ube44\ub1e8\uc758\ud559\uacfc", "\uc18c\uc544\uccad\uc18c\ub144\uacfc", "\uc678\uacfc", "\uc815\ud615\uc678\uacfc"]}, {"name": "\uc1a1\uc9c0\uba74\ubcf4\uac74\uc9c0\uc18c", "lat": "34.3720977933", "lng": "126.522446101", "url": "/info/%EC%86%A1%EC%A7%80%EB%A9%B4%EB%B3%B4%EA%B1%B4%EC%A7%80%EC%86%8C-%EC%A0%84%EB%9D%BC%EB%82%A8%EB%8F%84-%ED%95%B4%EB%82%A8%EA%B5%B0-%EC%86%A1%EC%A7%80%EB%A9%B4/", "workingTime": ["-", "09:00~18:00", "09:00~18:00", "09:00~18:00", "09:00~18:00", "09:00~18:00", "-", "-"], "course": [""]}, {"name": "\uc1a1\ud638\ubcf4\uac74\uc9c4\ub8cc\uc18c", "lat": "34.31673772314108", "lng": "126.5165285720153", "url": "/info/%EC%86%A1%ED%98%B8%EB%B3%B4%EA%B1%B4%EC%A7%84%EB%A3%8C%EC%86%8C-%EC%A0%84%EB%9D%BC%EB%82%A8%EB%8F%84-%ED%95%B4%EB%82%A8%EA%B5%B0-%EC%86%A1%EC%A7%80%EB%A9%B4/", "workingTime": ["-", "09:00~18:00", "09:00~18:00", "09:00~18:00", "09:00~18:00", "09:00~18:00", "-", "-"], "course": ["\ub0b4\uacfc"]}, {"name": "\uc2e0\uc815\ubcf4\uac74\uc9c4\ub8cc\uc18c", "lat": "34.414340243601195", "lng": "126.53294198357864", "url": "/info/%EC%8B%A0%EC%A0%95%EB%B3%B4%EA%B1%B4%EC%A7%84%EB%A3%8C%EC%86%8C-%EC%A0%84%EB%9D%BC%EB%82%A8%EB%8F%84-%ED%95%B4%EB%82%A8%EA%B5%B0-%EC%86%A1%EC%A7%80%EB%A9%B4/", "workingTime": ["-", "09:00~18:00", "09:00~18:00", "09:00~18:00", "09:00~18:00", "09:00~18:00", "-", "-"], "course": ["\ub0b4\uacfc"]}, {"name": "\uc1a1\uc9c0\ud55c\uc758\uc6d0", "lat": "34.368197222222221", "lng": "126.518002777777781", "url": "/info/%EC%86%A1%EC%A7%80%ED%95%9C%EC%9D%98%EC%9B%90-%EC%A0%84%EB%9D%BC%EB%82%A8%EB%8F%84-%ED%95%B4%EB%82%A8%EA%B5%B0-%EC%86%A1%EC%A7%80%EB%A9%B4/", "workingTime": ["-", "08:00~18:00", "08:00~18:00", "08:00~18:00", "08:00~18:00", "08:00~18:00", "08:00~15:00", "-"], "course": ["\uce68\uad6c\uacfc", "\ud55c\ubc29\ub0b4\uacfc", "\ud55c\ubc29\ubd80\uc778\uacfc", "\ud55c\ubc29\uc18c\uc544\uacfc", "\ud55c\ubc29\uc2e0\uacbd\uc815\uc2e0\uacfc", "\ud55c\ubc29\uc548\uc774\ube44\uc778\ud6c4\ud53c\ubd80\uacfc"]}, {"name": "\ud55c\uc591\uce58\uacfc\uc758\uc6d0", "lat": "34.370500000000000", "lng": "126.520169444444448", "url": "/info/%ED%95%9C%EC%96%91%EC%B9%98%EA%B3%BC%EC%9D%98%EC%9B%90-%EC%A0%84%EB%9D%BC%EB%82%A8%EB%8F%84-%ED%95%B4%EB%82%A8%EA%B5%B0-%EC%86%A1%EC%A7%80%EB%A9%B4/", "workingTime": ["-", "09:30~16:30", "-", "09:30~16:30", "-", "09:30~16:30", "-", "-"], "course": ["\uce58\uacfc"]}, {"name": "\ud55c\uc591\uc758\uc6d0", "lat": "34.37039043492298", "lng": "126.52048130763792", "url": "/info/%ED%95%9C%EC%96%91%EC%9D%98%EC%9B%90-%EC%A0%84%EB%9D%BC%EB%82%A8%EB%8F%84-%ED%95%B4%EB%82%A8%EA%B5%B0-%EC%86%A1%EC%A7%80%EB%A9%B4/", "workingTime": ["-", "08:15~16:15", "08:15~16:15", "08:15~16:15", "08:15~16:15", "08:15~16:15", "08:15~11:15", "-"], "course": ["\ub0b4\uacfc", "\ube44\ub1e8\uc758\ud559\uacfc", "\uc18c\uc544\uccad\uc18c\ub144\uacfc", "\uc678\uacfc", "\uc751\uae09\uc758\ud559\uacfc", "\uc815\ud615\uc678\uacfc", "\ud749\ubd80\uc678\uacfc"]}]