[{"name": "\uace0\uc0b0\uc131\ubaa8\uc758\uc6d0", "lat": "35.9740911678565", "lng": "127.20672395400517", "url": "/info/%EA%B3%A0%EC%82%B0%EC%84%B1%EB%AA%A8%EC%9D%98%EC%9B%90-%EC%A0%84%EB%9D%BC%EB%B6%81%EB%8F%84-%EC%99%84%EC%A3%BC%EA%B5%B0-%EA%B3%A0%EC%82%B0%EB%A9%B4/", "workingTime": ["-", "08:30~17:30", "08:30~17:30", "08:30~17:30", "08:30~17:30", "08:30~17:30", "08:30~13:00", "-"], "course": ["\ub0b4\uacfc"]}, {"name": "\uace0\uc0b0\ud55c\uc758\uc6d0", "lat": "35.97462598672681", "lng": "127.20644993961903", "url": "/info/%EA%B3%A0%EC%82%B0%ED%95%9C%EC%9D%98%EC%9B%90-%EC%A0%84%EB%9D%BC%EB%B6%81%EB%8F%84-%EC%99%84%EC%A3%BC%EA%B5%B0-%EA%B3%A0%EC%82%B0%EB%A9%B4/", "workingTime": ["-", "08:00~17:30", "08:00~17:30", "08:00~17:30", "08:00~17:30", "08:00~17:30", "08:00~12:30", "-"], "course": ["\uce68\uad6c\uacfc", "\ud55c\ubc29\ub0b4\uacfc"]}, {"name": "\uace0\uc0b0\uac00\uc815\uc758\ud559\uacfc\uc758\uc6d0", "lat": "35.97505341109094", "lng": "127.20689608366219", "url": "/info/%EA%B3%A0%EC%82%B0%EA%B0%80%EC%A0%95%EC%9D%98%ED%95%99%EA%B3%BC%EC%9D%98%EC%9B%90-%EC%A0%84%EB%9D%BC%EB%B6%81%EB%8F%84-%EC%99%84%EC%A3%BC%EA%B5%B0-%EA%B3%A0%EC%82%B0%EB%A9%B4/", "workingTime": ["-", "08:10~17:20", "08:10~17:20", "08:10~17:20", "08:10~17:20", "08:10~17:20", "08:10~12:20", "-"], "course": ["\uac00\uc815\uc758\ud559\uacfc", "\ub0b4\uacfc", "\ube44\ub1e8\uc758\ud559\uacfc", "\uc18c\uc544\uccad\uc18c\ub144\uacfc", "\uc2e0\uacbd\uc678\uacfc", "\uc548\uacfc", "\uc678\uacfc", "\uc774\ube44\uc778\ud6c4\uacfc", "\uc815\ud615\uc678\uacfc", "\ud53c\ubd80\uacfc"]}, {"name": "\ud55c\uc194\uc758\uc6d0", "lat": "35.97522882280261", "lng": "127.20597252343678", "url": "/info/%ED%95%9C%EC%86%94%EC%9D%98%EC%9B%90-%EC%A0%84%EB%9D%BC%EB%B6%81%EB%8F%84-%EC%99%84%EC%A3%BC%EA%B5%B0-%EA%B3%A0%EC%82%B0%EB%A9%B4/", "workingTime": ["-", "08:00~17:30", "08:00~17:30", "08:00~17:30", "08:00~17:30", "08:00~17:30", "08:00~12:30", "-"], "course": ["\uac00\uc815\uc758\ud559\uacfc", "\ub0b4\uacfc", "\ub9c8\ucde8\ud1b5\uc99d\uc758\ud559\uacfc", "\ube44\ub1e8\uc758\ud559\uacfc", "\uc18c\uc544\uccad\uc18c\ub144\uacfc", "\uc2e0\uacbd\uacfc", "\uc678\uacfc", "\uc774\ube44\uc778\ud6c4\uacfc", "\uc7ac\ud65c\uc758\ud559\uacfc", "\uc815\ud615\uc678\uacfc", "\ud53c\ubd80\uacfc", "\ud749\ubd80\uc678\uacfc"]}, {"name": "\uace0\uc0b0\ud55c\uacb0\uce58\uacfc\uc758\uc6d0", "lat": "35.974854110017596", "lng": "127.20643545349864", "url": "/info/%EA%B3%A0%EC%82%B0%ED%95%9C%EA%B2%B0%EC%B9%98%EA%B3%BC%EC%9D%98%EC%9B%90-%EC%A0%84%EB%9D%BC%EB%B6%81%EB%8F%84-%EC%99%84%EC%A3%BC%EA%B5%B0-%EA%B3%A0%EC%82%B0%EB%A9%B4/", "workingTime": ["-", "09:00~18:30", "09:00~18:30", "09:00~18:30", "09:00~12:30", "09:00~18:30", "09:00~13:00", "-"], "course": ["\uce58\uacfc"]}, {"name": "\uace0\uc0b0\ubcf4\uac74\uc9c0\uc18c", "lat": "35.976487470123395", "lng": "127.20566088349926", "url": "/info/%EA%B3%A0%EC%82%B0%EB%B3%B4%EA%B1%B4%EC%A7%80%EC%86%8C-%EC%A0%84%EB%9D%BC%EB%B6%81%EB%8F%84-%EC%99%84%EC%A3%BC%EA%B5%B0-%EA%B3%A0%EC%82%B0%EB%A9%B4/", "workingTime": ["-", "09:00~18:00", "09:00~18:00", "09:00~18:00", "09:00~18:00", "09:00~18:00", "-", "-"], "course": [""]}, {"name": "\uc18c\ud5a5\ubcf4\uac74\uc9c4\ub8cc\uc18c", "lat": "35.98414421529061", "lng": "127.25486528797924", "url": "/info/%EC%86%8C%ED%96%A5%EB%B3%B4%EA%B1%B4%EC%A7%84%EB%A3%8C%EC%86%8C-%EC%A0%84%EB%9D%BC%EB%B6%81%EB%8F%84-%EC%99%84%EC%A3%BC%EA%B5%B0-%EA%B3%A0%EC%82%B0%EB%A9%B4/", "workingTime": ["-", "09:00~18:00", "09:00~18:00", "09:00~18:00", "09:00~18:00", "09:00~18:00", "-", "-"], "course": [""]}, {"name": "\ucd5c\uc218\uc601\ub0b4\uacfc\uc758\uc6d0", "lat": "35.97540169816674", "lng": "127.20664643261202", "url": "/info/%EC%B5%9C%EC%88%98%EC%98%81%EB%82%B4%EA%B3%BC%EC%9D%98%EC%9B%90-%EC%A0%84%EB%9D%BC%EB%B6%81%EB%8F%84-%EC%99%84%EC%A3%BC%EA%B5%B0-%EA%B3%A0%EC%82%B0%EB%A9%B4/", "workingTime": ["-", "08:30~17:30", "08:30~17:30", "08:30~17:30", "08:30~12:30", "08:30~17:30", "08:30~12:30", "-"], "course": ["\ub0b4\uacfc"]}, {"name": "\ubd80\ubd80\ud55c\uc758\uc6d0", "lat": "35.97490751144389", "lng": "127.20412676240647", "url": "/info/%EB%B6%80%EB%B6%80%ED%95%9C%EC%9D%98%EC%9B%90-%EC%A0%84%EB%9D%BC%EB%B6%81%EB%8F%84-%EC%99%84%EC%A3%BC%EA%B5%B0-%EA%B3%A0%EC%82%B0%EB%A9%B4/", "workingTime": ["-", "08:00~17:00", "08:00~17:00", "08:00~17:00", "08:00~17:00", "08:00~17:00", "08:00~12:00", "-"], "course": ["\uce68\uad6c\uacfc", "\ud55c\ubc29\ub0b4\uacfc", "\ud55c\ubc29\ubd80\uc778\uacfc", "\ud55c\ubc29\uc18c\uc544\uacfc"]}]