[{"name": "\ud64d\ub3c4\ubcf4\uac74\uc9c0\uc18c", "lat": "34.68315141545574", "lng": "125.19172149427108", "url": "/info/%ED%99%8D%EB%8F%84%EB%B3%B4%EA%B1%B4%EC%A7%80%EC%86%8C-%EC%A0%84%EB%9D%BC%EB%82%A8%EB%8F%84-%EC%8B%A0%EC%95%88%EA%B5%B0-%ED%9D%91%EC%82%B0%EB%A9%B4/", "workingTime": ["1,2,3,4,5\uc9f8\uc8fc00:00~24:00", "00:00~24:00", "00:00~24:00", "00:00~24:00", "00:00~24:00", "00:00~24:00", "00:00~24:00", "00:00~24:00"], "course": [""]}, {"name": "\uac00\uac70\ub3c4\ubcf4\uac74\uc9c0\uc18c", "lat": "34.05115293873777", "lng": "125.1290058831149", "url": "/info/%EA%B0%80%EA%B1%B0%EB%8F%84%EB%B3%B4%EA%B1%B4%EC%A7%80%EC%86%8C-%EC%A0%84%EB%9D%BC%EB%82%A8%EB%8F%84-%EC%8B%A0%EC%95%88%EA%B5%B0-%ED%9D%91%EC%82%B0%EB%A9%B4/", "workingTime": ["1,2,3,4,5\uc9f8\uc8fc00:00~24:00", "00:00~24:00", "00:00~24:00", "00:00~24:00", "00:00~24:00", "00:00~24:00", "00:00~24:00", "00:00~24:00"], "course": [""]}, {"name": "\ud751\uc0b0\uba74\ubcf4\uac74\uc9c0\uc18c", "lat": "34.68363986189054", "lng": "125.44276433973161", "url": "/info/%ED%9D%91%EC%82%B0%EB%A9%B4%EB%B3%B4%EA%B1%B4%EC%A7%80%EC%86%8C-%EC%A0%84%EB%9D%BC%EB%82%A8%EB%8F%84-%EC%8B%A0%EC%95%88%EA%B5%B0-%ED%9D%91%EC%82%B0%EB%A9%B4/", "workingTime": ["-", "00:00~24:00", "00:00~24:00", "00:00~24:00", "00:00~24:00", "00:00~24:00", "-", "-"], "course": ["\ub0b4\uacfc"]}, {"name": "\ud751\uc0b0\uba74\uc0ac\ub9ac\ubcf4\uac74\uc9c4\ub8cc\uc18c", "lat": "34.64647132774924", "lng": "125.4098993509486", "url": "/info/%ED%9D%91%EC%82%B0%EB%A9%B4%EC%82%AC%EB%A6%AC%EB%B3%B4%EA%B1%B4%EC%A7%84%EB%A3%8C%EC%86%8C-%EC%A0%84%EB%9D%BC%EB%82%A8%EB%8F%84-%EC%8B%A0%EC%95%88%EA%B5%B0-%ED%9D%91%EC%82%B0%EB%A9%B4/", "workingTime": ["-", "10:30~19:30", "09:00~18:00", "09:00~18:00", "09:00~18:00", "06:30~15:00", "-", "-"], "course": [""]}, {"name": "\ud751\uc0b0\uba74\uc601\uc0b0\ub3c4\ubcf4\uac74\uc9c4\ub8cc\uc18c", "lat": "34.65203145466019", "lng": "125.46703313423154", "url": "/info/%ED%9D%91%EC%82%B0%EB%A9%B4%EC%98%81%EC%82%B0%EB%8F%84%EB%B3%B4%EA%B1%B4%EC%A7%84%EB%A3%8C%EC%86%8C-%EC%A0%84%EB%9D%BC%EB%82%A8%EB%8F%84-%EC%8B%A0%EC%95%88%EA%B5%B0-%ED%9D%91%EC%82%B0%EB%A9%B4/", "workingTime": ["-", "09:00~18:00", "09:00~18:00", "09:00~18:00", "09:00~18:00", "09:00~18:00", "-", "-"], "course": ["\ub0b4\uacfc"]}, {"name": "\ud751\uc0b0\uba74\uc7a5\ub3c4\ubcf4\uac74\uc9c4\ub8cc\uc18c", "lat": "34.67938533455031", "lng": "125.37811164025211", "url": "/info/%ED%9D%91%EC%82%B0%EB%A9%B4%EC%9E%A5%EB%8F%84%EB%B3%B4%EA%B1%B4%EC%A7%84%EB%A3%8C%EC%86%8C-%EC%A0%84%EB%9D%BC%EB%82%A8%EB%8F%84-%EC%8B%A0%EC%95%88%EA%B5%B0-%ED%9D%91%EC%82%B0%EB%A9%B4/", "workingTime": ["-", "09:00~18:00", "09:00~18:00", "09:00~18:00", "09:00~18:00", "09:00~18:00", "-", "-"], "course": [""]}, {"name": "\ud751\uc0b0\uba74\ud0dc\ub3c4\ubcf4\uac74\uc9c4\ub8cc\uc18c", "lat": "34.390719565252375", "lng": "125.29860362272294", "url": "/info/%ED%9D%91%EC%82%B0%EB%A9%B4%ED%83%9C%EB%8F%84%EB%B3%B4%EA%B1%B4%EC%A7%84%EB%A3%8C%EC%86%8C-%EC%A0%84%EB%9D%BC%EB%82%A8%EB%8F%84-%EC%8B%A0%EC%95%88%EA%B5%B0-%ED%9D%91%EC%82%B0%EB%A9%B4/", "workingTime": ["-", "09:00~18:00", "09:00~18:00", "09:00~18:00", "09:00~18:00", "09:00~18:00", "-", "-"], "course": ["\uac00\uc815\uc758\ud559\uacfc", "\uc678\uacfc"]}, {"name": "\uc18c\ub9dd\uc758\uc6d0", "lat": "34.68582819029902", "lng": "125.44583090737946", "url": "/info/%EC%86%8C%EB%A7%9D%EC%9D%98%EC%9B%90-%EC%A0%84%EB%9D%BC%EB%82%A8%EB%8F%84-%EC%8B%A0%EC%95%88%EA%B5%B0-%ED%9D%91%EC%82%B0%EB%A9%B4/", "workingTime": ["-", "08:00~17:00", "08:00~17:00", "08:00~17:00", "08:00~17:00", "08:00~17:00", "08:00~15:00", "-"], "course": ["\ub0b4\uacfc", "\ube44\ub1e8\uc758\ud559\uacfc", "\uc18c\uc544\uccad\uc18c\ub144\uacfc", "\uc678\uacfc", "\uc774\ube44\uc778\ud6c4\uacfc", "\uc7ac\ud65c\uc758\ud559\uacfc", "\uc815\ud615\uc678\uacfc"]}, {"name": "\ud751\uc0b0\uba74\ub2e4\ubb3c\ub3c4\ubcf4\uac74\uc9c4\ub8cc\uc18c", "lat": "34.73687156655789", "lng": "125.44438428505", "url": "/info/%ED%9D%91%EC%82%B0%EB%A9%B4%EB%8B%A4%EB%AC%BC%EB%8F%84%EB%B3%B4%EA%B1%B4%EC%A7%84%EB%A3%8C%EC%86%8C-%EC%A0%84%EB%9D%BC%EB%82%A8%EB%8F%84-%EC%8B%A0%EC%95%88%EA%B5%B0-%ED%9D%91%EC%82%B0%EB%A9%B4/", "workingTime": ["-", "09:00~18:00", "09:00~18:00", "09:00~18:00", "09:00~18:00", "09:00~18:00", "-", "-"], "course": ["\uac00\uc815\uc758\ud559\uacfc"]}, {"name": "\ud751\uc0b0\uba74\ub300\ub454\ub3c4\ubcf4\uac74\uc9c4\ub8cc\uc18c", "lat": "34.73067583485387", "lng": "125.4638272350397", "url": "/info/%ED%9D%91%EC%82%B0%EB%A9%B4%EB%8C%80%EB%91%94%EB%8F%84%EB%B3%B4%EA%B1%B4%EC%A7%84%EB%A3%8C%EC%86%8C-%EC%A0%84%EB%9D%BC%EB%82%A8%EB%8F%84-%EC%8B%A0%EC%95%88%EA%B5%B0-%ED%9D%91%EC%82%B0%EB%A9%B4/", "workingTime": ["-", "09:00~18:00", "09:00~18:00", "09:00~18:00", "09:00~18:00", "09:00~18:00", "-", "-"], "course": ["\uac00\uc815\uc758\ud559\uacfc"]}, {"name": "\ud751\uc0b0\uba74\ub9cc\uc7ac\ub3c4\ubcf4\uac74\uc9c4\ub8cc\uc18c", "lat": "34.207653165274884", "lng": "125.46907145361845", "url": "/info/%ED%9D%91%EC%82%B0%EB%A9%B4%EB%A7%8C%EC%9E%AC%EB%8F%84%EB%B3%B4%EA%B1%B4%EC%A7%84%EB%A3%8C%EC%86%8C-%EC%A0%84%EB%9D%BC%EB%82%A8%EB%8F%84-%EC%8B%A0%EC%95%88%EA%B5%B0-%ED%9D%91%EC%82%B0%EB%A9%B4/", "workingTime": ["-", "09:00~18:00", "09:00~18:00", "09:00~18:00", "09:00~18:00", "09:00~18:00", "-", "-"], "course": ["\ub0b4\uacfc", "\uc18c\uc544\uccad\uc18c\ub144\uacfc", "\uc774\ube44\uc778\ud6c4\uacfc"]}]