[{"name": "\uad70\uc11c\uc758\uc6d0", "lat": "34.76202119425367", "lng": "126.6338790409068", "url": "/info/%EA%B5%B0%EC%84%9C%EC%9D%98%EC%9B%90-%EC%A0%84%EB%9D%BC%EB%82%A8%EB%8F%84-%EC%98%81%EC%95%94%EA%B5%B0-%EA%B5%B0%EC%84%9C%EB%A9%B4/", "workingTime": ["-", "08:00~16:30", "08:00~16:30", "08:00~16:30", "08:00~16:30", "08:00~16:30", "08:00~13:00", "-"], "course": ["\ub0b4\uacfc", "\ube44\ub1e8\uc758\ud559\uacfc", "\uc18c\uc544\uccad\uc18c\ub144\uacfc", "\uc678\uacfc", "\uc7ac\ud65c\uc758\ud559\uacfc", "\uc815\ud615\uc678\uacfc", "\ud53c\ubd80\uacfc"]}, {"name": "\ub3c4\uac11\ud55c\uc758\uc6d0", "lat": "34.7620934534", "lng": "126.6332000862", "url": "/info/%EB%8F%84%EA%B0%91%ED%95%9C%EC%9D%98%EC%9B%90-%EC%A0%84%EB%9D%BC%EB%82%A8%EB%8F%84-%EC%98%81%EC%95%94%EA%B5%B0-%EA%B5%B0%EC%84%9C%EB%A9%B4/", "workingTime": ["-", "06:00~12:00", "06:00~12:00", "06:00~12:00", "06:00~12:00", "06:00~12:00", "06:00~12:00", "-"], "course": ["\uce68\uad6c\uacfc", "\ud55c\ubc29\ub0b4\uacfc", "\ud55c\ubc29\ubd80\uc778\uacfc", "\ud55c\ubc29\uc18c\uc544\uacfc", "\ud55c\ubc29\uc2e0\uacbd\uc815\uc2e0\uacfc", "\ud55c\ubc29\uc548\uc774\ube44\uc778\ud6c4\ud53c\ubd80\uacfc"]}, {"name": "\ud574\ucc3d\ubcf4\uac74\uc9c4\ub8cc\uc18c", "lat": "34.80419621574173", "lng": "126.64729975513532", "url": "/info/%ED%95%B4%EC%B0%BD%EB%B3%B4%EA%B1%B4%EC%A7%84%EB%A3%8C%EC%86%8C-%EC%A0%84%EB%9D%BC%EB%82%A8%EB%8F%84-%EC%98%81%EC%95%94%EA%B5%B0-%EA%B5%B0%EC%84%9C%EB%A9%B4/", "workingTime": ["-", "09:00~18:00", "09:00~18:00", "09:00~18:00", "09:00~18:00", "09:00~18:00", "-", "-"], "course": ["\uac00\uc815\uc758\ud559\uacfc"]}, {"name": "\uad70\uc11c\uba74\ubcf4\uac74\uc9c0\uc18c", "lat": "34.762236202721866", "lng": "126.6351087501177", "url": "/info/%EA%B5%B0%EC%84%9C%EB%A9%B4%EB%B3%B4%EA%B1%B4%EC%A7%80%EC%86%8C-%EC%A0%84%EB%9D%BC%EB%82%A8%EB%8F%84-%EC%98%81%EC%95%94%EA%B5%B0-%EA%B5%B0%EC%84%9C%EB%A9%B4/", "workingTime": ["-", "09:00~18:00", "09:00~18:00", "09:00~18:00", "09:00~18:00", "09:00~18:00", "-", "-"], "course": [""]}, {"name": "\ubaa8\uc815\ubcf4\uac74\uc9c4\ub8cc\uc18c", "lat": "34.778427546195125", "lng": "126.61363321112019", "url": "/info/%EB%AA%A8%EC%A0%95%EB%B3%B4%EA%B1%B4%EC%A7%84%EB%A3%8C%EC%86%8C-%EC%A0%84%EB%9D%BC%EB%82%A8%EB%8F%84-%EC%98%81%EC%95%94%EA%B5%B0-%EA%B5%B0%EC%84%9C%EB%A9%B4/", "workingTime": ["-", "09:00~18:00", "09:00~18:00", "09:00~18:00", "09:00~18:00", "09:00~18:00", "-", "-"], "course": [""]}]