[{"name": "\ub355\uc720\uc0b0\ud55c\uc758\uc6d0", "lat": "35.8664944749392", "lng": "127.65417842232502", "url": "/info/%EB%8D%95%EC%9C%A0%EC%82%B0%ED%95%9C%EC%9D%98%EC%9B%90-%EC%A0%84%EB%9D%BC%EB%B6%81%EB%8F%84-%EB%AC%B4%EC%A3%BC%EA%B5%B0-%EC%95%88%EC%84%B1%EB%A9%B4/", "workingTime": ["-", "09:00~18:00", "09:00~18:00", "09:00~18:00", "09:00~18:00", "09:00~18:00", "09:00~13:00", "-"], "course": ["\uc0ac\uc0c1\uccb4\uc9c8\uacfc", "\uce68\uad6c\uacfc", "\ud55c\ubc29\ub0b4\uacfc", "\ud55c\ubc29\ubd80\uc778\uacfc", "\ud55c\ubc29\uc18c\uc544\uacfc", "\ud55c\ubc29\uc2e0\uacbd\uc815\uc2e0\uacfc", "\ud55c\ubc29\uc548\uc774\ube44\uc778\ud6c4\ud53c\ubd80\uacfc", "\ud55c\ubc29\uc751\uae09\uacfc", "\ud55c\ubc29\uc7ac\ud65c\uc758\ud559\uacfc"]}, {"name": "\ubb34\uc8fc\uad70\uc548\uc131\ubcf4\uac74\uc9c0\uc18c", "lat": "35.84912740212538", "lng": "127.6522303022372", "url": "/info/%EB%AC%B4%EC%A3%BC%EA%B5%B0%EC%95%88%EC%84%B1%EB%B3%B4%EA%B1%B4%EC%A7%80%EC%86%8C-%EC%A0%84%EB%9D%BC%EB%B6%81%EB%8F%84-%EB%AC%B4%EC%A3%BC%EA%B5%B0-%EC%95%88%EC%84%B1%EB%A9%B4/", "workingTime": ["-", "09:00~18:00", "09:00~18:00", "09:00~18:00", "09:00~18:00", "09:00~18:00", "-", "-"], "course": [""]}, {"name": "\ud55c\uc591\uac00\uc815\uc81c\ud1b5\uc758\uc6d0", "lat": "35.86803097448078", "lng": "127.65493872419688", "url": "/info/%ED%95%9C%EC%96%91%EA%B0%80%EC%A0%95%EC%A0%9C%ED%86%B5%EC%9D%98%EC%9B%90-%EC%A0%84%EB%9D%BC%EB%B6%81%EB%8F%84-%EB%AC%B4%EC%A3%BC%EA%B5%B0-%EC%95%88%EC%84%B1%EB%A9%B4/", "workingTime": ["-", "08:30~18:30", "08:30~18:30", "08:30~12:30", "08:30~18:30", "08:30~18:30", "08:30~12:30", "08:30~12:30"], "course": ["\uac00\uc815\uc758\ud559\uacfc", "\ub0b4\uacfc", "\uc18c\uc544\uccad\uc18c\ub144\uacfc", "\uc678\uacfc", "\uc815\ud615\uc678\uacfc"]}, {"name": "\ud3c9\ud654\uc758\uc6d0", "lat": "35.865979174054694", "lng": "127.65579016335695", "url": "/info/%ED%8F%89%ED%99%94%EC%9D%98%EC%9B%90-%EC%A0%84%EB%9D%BC%EB%B6%81%EB%8F%84-%EB%AC%B4%EC%A3%BC%EA%B5%B0-%EC%95%88%EC%84%B1%EB%A9%B4/", "workingTime": ["-", "08:40~18:30", "08:40~18:30", "08:40~18:30", "08:40~18:30", "08:40~18:30", "08:40~13:00", "08:40~13:00"], "course": ["\ub0b4\uacfc", "\uc18c\uc544\uccad\uc18c\ub144\uacfc", "\uc678\uacfc", "\uc815\ud615\uc678\uacfc", "\ud53c\ubd80\uacfc"]}, {"name": "100\uc138 \uce58\uacfc\uc758\uc6d0", "lat": "35.86690925158185", "lng": "127.65480187095204", "url": "/info/100%EC%84%B8+%EC%B9%98%EA%B3%BC%EC%9D%98%EC%9B%90-%EC%A0%84%EB%9D%BC%EB%B6%81%EB%8F%84-%EB%AC%B4%EC%A3%BC%EA%B5%B0-%EC%95%88%EC%84%B1%EB%A9%B4/", "workingTime": ["-", "09:00~17:00", "09:00~17:00", "09:00~17:00", "09:00~17:00", "09:00~17:00", "09:00~12:00", "-"], "course": ["\uce58\uacfc"]}, {"name": "\uc9c4\ub3c4\ubcf4\uac74\uc9c4\ub8cc\uc18c", "lat": "35.86509435843904", "lng": "127.62394507191476", "url": "/info/%EC%A7%84%EB%8F%84%EB%B3%B4%EA%B1%B4%EC%A7%84%EB%A3%8C%EC%86%8C-%EC%A0%84%EB%9D%BC%EB%B6%81%EB%8F%84-%EB%AC%B4%EC%A3%BC%EA%B5%B0-%EC%95%88%EC%84%B1%EB%A9%B4/", "workingTime": ["-", "09:00~18:00", "09:00~18:00", "09:00~18:00", "09:00~18:00", "09:00~18:00", "-", "-"], "course": ["\ub0b4\uacfc"]}, {"name": "\uacf5\uc815\ubcf4\uac74\uc9c4\ub8cc\uc18c", "lat": "35.848885571818656", "lng": "127.67609330597668", "url": "/info/%EA%B3%B5%EC%A0%95%EB%B3%B4%EA%B1%B4%EC%A7%84%EB%A3%8C%EC%86%8C-%EC%A0%84%EB%9D%BC%EB%B6%81%EB%8F%84-%EB%AC%B4%EC%A3%BC%EA%B5%B0-%EC%95%88%EC%84%B1%EB%A9%B4/", "workingTime": ["-", "09:00~18:00", "09:00~18:00", "09:00~18:00", "09:00~18:00", "09:00~18:00", "-", "-"], "course": ["\ub0b4\uacfc"]}, {"name": "\uacf5\uc9c4\ubcf4\uac74\uc9c4\ub8cc\uc18c", "lat": "35.82903078341388", "lng": "127.64031166495745", "url": "/info/%EA%B3%B5%EC%A7%84%EB%B3%B4%EA%B1%B4%EC%A7%84%EB%A3%8C%EC%86%8C-%EC%A0%84%EB%9D%BC%EB%B6%81%EB%8F%84-%EB%AC%B4%EC%A3%BC%EA%B5%B0-%EC%95%88%EC%84%B1%EB%A9%B4/", "workingTime": ["-", "09:00~18:00", "09:00~18:00", "09:00~18:00", "09:00~18:00", "09:00~18:00", "-", "-"], "course": ["\ub0b4\uacfc"]}]