[{"name": "\uad6d\uc6d0\ubcf4\uac74\uc9c4\ub8cc\uc18c", "lat": "36.35277379424535", "lng": "127.58977340893344", "url": "/info/%EA%B5%AD%EC%9B%90%EB%B3%B4%EA%B1%B4%EC%A7%84%EB%A3%8C%EC%86%8C-%EC%B6%A9%EC%B2%AD%EB%B6%81%EB%8F%84-%EC%98%A5%EC%B2%9C%EA%B5%B0-%EA%B5%B0%EB%B6%81%EB%A9%B4/", "workingTime": ["-", "09:00~18:00", "09:00~18:00", "09:00~18:00", "09:00~18:00", "09:00~18:00", "-", "-"], "course": [""]}, {"name": "\uad70\ubd81\ubcf4\uac74\uc9c0\uc18c", "lat": "36.3298051539951", "lng": "127.53439997307748", "url": "/info/%EA%B5%B0%EB%B6%81%EB%B3%B4%EA%B1%B4%EC%A7%80%EC%86%8C-%EC%B6%A9%EC%B2%AD%EB%B6%81%EB%8F%84-%EC%98%A5%EC%B2%9C%EA%B5%B0-%EA%B5%B0%EB%B6%81%EB%A9%B4/", "workingTime": ["-", "09:00~18:00", "09:00~18:00", "09:00~18:00", "09:00~18:00", "09:00~18:00", "-", "-"], "course": ["\ub0b4\uacfc"]}, {"name": "\ub300\uc815\ubcf4\uac74\uc9c4\ub8cc\uc18c", "lat": "36.38442982495655", "lng": "127.54086212066545", "url": "/info/%EB%8C%80%EC%A0%95%EB%B3%B4%EA%B1%B4%EC%A7%84%EB%A3%8C%EC%86%8C-%EC%B6%A9%EC%B2%AD%EB%B6%81%EB%8F%84-%EC%98%A5%EC%B2%9C%EA%B5%B0-%EA%B5%B0%EB%B6%81%EB%A9%B4/", "workingTime": ["-", "09:00~18:00", "09:00~18:00", "09:00~18:00", "09:00~18:00", "09:00~18:00", "-", "-"], "course": [""]}, {"name": "\ub3c4\uae68\ube44\ud55c\uc758\uc6d0", "lat": "36.345868766355686", "lng": "127.52380386838082", "url": "/info/%EB%8F%84%EA%B9%A8%EB%B9%84%ED%95%9C%EC%9D%98%EC%9B%90-%EC%B6%A9%EC%B2%AD%EB%B6%81%EB%8F%84-%EC%98%A5%EC%B2%9C%EA%B5%B0-%EA%B5%B0%EB%B6%81%EB%A9%B4/", "workingTime": ["-", "09:00~18:00", "09:00~18:00", "09:00~18:00", "09:00~18:00", "09:00~18:00", "-", "-"], "course": ["\uc0ac\uc0c1\uccb4\uc9c8\uacfc", "\uce68\uad6c\uacfc", "\ud55c\ubc29\ub0b4\uacfc", "\ud55c\ubc29\ubd80\uc778\uacfc", "\ud55c\ubc29\uc18c\uc544\uacfc", "\ud55c\ubc29\uc2e0\uacbd\uc815\uc2e0\uacfc", "\ud55c\ubc29\uc548\uc774\ube44\uc778\ud6c4\ud53c\ubd80\uacfc", "\ud55c\ubc29\uc7ac\ud65c\uc758\ud559\uacfc"]}, {"name": "\uc99d\uc57d\ubcf4\uac74\uc9c4\ub8cc\uc18c", "lat": "36.338839385536765", "lng": "127.51608732662426", "url": "/info/%EC%A6%9D%EC%95%BD%EB%B3%B4%EA%B1%B4%EC%A7%84%EB%A3%8C%EC%86%8C-%EC%B6%A9%EC%B2%AD%EB%B6%81%EB%8F%84-%EC%98%A5%EC%B2%9C%EA%B5%B0-%EA%B5%B0%EB%B6%81%EB%A9%B4/", "workingTime": ["-", "09:00~18:00", "09:00~18:00", "09:00~18:00", "09:00~18:00", "09:00~18:00", "-", "-"], "course": [""]}]