[{"name": "\uc18c\uc6d0\uc758\uc6d0", "lat": "36.75888105947432", "lng": "126.19659346652331", "url": "/info/%EC%86%8C%EC%9B%90%EC%9D%98%EC%9B%90-%EC%B6%A9%EC%B2%AD%EB%82%A8%EB%8F%84-%ED%83%9C%EC%95%88%EA%B5%B0-%EC%86%8C%EC%9B%90%EB%A9%B4/", "workingTime": ["-", "08:00~18:00", "08:00~18:00", "08:00~18:00", "08:00~18:00", "08:00~18:00", "08:00~13:00", "08:00~13:00"], "course": ["\ub0b4\uacfc", "\uc18c\uc544\uccad\uc18c\ub144\uacfc", "\uc678\uacfc", "\uc774\ube44\uc778\ud6c4\uacfc", "\ud53c\ubd80\uacfc"]}, {"name": "\ud30c\ub3c4\ub9ac\ubcf4\uac74\uc9c4\ub8cc\uc18c", "lat": "36.73496680275508", "lng": "126.14154278446657", "url": "/info/%ED%8C%8C%EB%8F%84%EB%A6%AC%EB%B3%B4%EA%B1%B4%EC%A7%84%EB%A3%8C%EC%86%8C-%EC%B6%A9%EC%B2%AD%EB%82%A8%EB%8F%84-%ED%83%9C%EC%95%88%EA%B5%B0-%EC%86%8C%EC%9B%90%EB%A9%B4/", "workingTime": ["-", "09:00~18:00", "09:00~18:00", "09:00~18:00", "09:00~18:00", "09:00~18:00", "-", "-"], "course": [""]}, {"name": "\ud0dc\uc548\uad70\uc18c\uc6d0\uba74\ubaa8\ud56d\ubcf4\uac74\uc9c4\ub8cc\uc18c", "lat": "36.77321188942917", "lng": "126.14047513050608", "url": "/info/%ED%83%9C%EC%95%88%EA%B5%B0%EC%86%8C%EC%9B%90%EB%A9%B4%EB%AA%A8%ED%95%AD%EB%B3%B4%EA%B1%B4%EC%A7%84%EB%A3%8C%EC%86%8C-%EC%B6%A9%EC%B2%AD%EB%82%A8%EB%8F%84-%ED%83%9C%EC%95%88%EA%B5%B0-%EC%86%8C%EC%9B%90%EB%A9%B4/", "workingTime": ["-", "09:00~18:00", "09:00~18:00", "09:00~18:00", "09:00~18:00", "09:00~18:00", "-", "-"], "course": [""]}, {"name": "\uc758\ud56d\ub9ac\ubcf4\uac74\uc9c4\ub8cc\uc18c", "lat": "36.833236050413056", "lng": "126.16441592762903", "url": "/info/%EC%9D%98%ED%95%AD%EB%A6%AC%EB%B3%B4%EA%B1%B4%EC%A7%84%EB%A3%8C%EC%86%8C-%EC%B6%A9%EC%B2%AD%EB%82%A8%EB%8F%84-%ED%83%9C%EC%95%88%EA%B5%B0-%EC%86%8C%EC%9B%90%EB%A9%B4/", "workingTime": ["-", "09:00~18:00", "09:00~18:00", "09:00~18:00", "09:00~18:00", "09:00~18:00", "-", "-"], "course": [""]}, {"name": "\uc18c\uc6d0\ubcf4\uac74\uc9c0\uc18c", "lat": "36.75860665693706", "lng": "126.19558851649927", "url": "/info/%EC%86%8C%EC%9B%90%EB%B3%B4%EA%B1%B4%EC%A7%80%EC%86%8C-%EC%B6%A9%EC%B2%AD%EB%82%A8%EB%8F%84-%ED%83%9C%EC%95%88%EA%B5%B0-%EC%86%8C%EC%9B%90%EB%A9%B4/", "workingTime": ["-", "09:00~18:00", "09:00~18:00", "09:00~18:00", "09:00~18:00", "09:00~18:00", "-", "-"], "course": ["\ub0b4\uacfc"]}, {"name": "\ub9cc\ub9ac\ud3ec\ubcf4\uac74\uc9c4\ub8cc\uc18c", "lat": "36.78363824762098", "lng": "126.14433758764412", "url": "/info/%EB%A7%8C%EB%A6%AC%ED%8F%AC%EB%B3%B4%EA%B1%B4%EC%A7%84%EB%A3%8C%EC%86%8C-%EC%B6%A9%EC%B2%AD%EB%82%A8%EB%8F%84-%ED%83%9C%EC%95%88%EA%B5%B0-%EC%86%8C%EC%9B%90%EB%A9%B4/", "workingTime": ["-", "09:00~18:00", "09:00~18:00", "09:00~18:00", "09:00~18:00", "09:00~18:00", "-", "-"], "course": [""]}]