[{"name": "\uc2e0\uc885\uc12d\uce58\uacfc\uc758\uc6d0", "lat": "36.6351756461", "lng": "127.459527197", "url": "/info/%EC%8B%A0%EC%A2%85%EC%84%AD%EC%B9%98%EA%B3%BC%EC%9D%98%EC%9B%90-%EC%B6%A9%EC%B2%AD%EB%B6%81%EB%8F%84-%EC%B2%AD%EC%A3%BC%EC%8B%9C-%EA%B0%95%EB%82%B4%EB%A9%B4/", "workingTime": ["-", "09:00~18:00", "09:00~18:00", "09:00~18:00", "09:00~18:00", "09:00~18:00", "09:00~13:00", "-"], "course": ["\uce58\uacfc"]}, {"name": "\ucc38\uc88b\uc740\uc758\uc6d0", "lat": "36.62385074016032", "lng": "127.36452753649466", "url": "/info/%EC%B0%B8%EC%A2%8B%EC%9D%80%EC%9D%98%EC%9B%90-%EC%B6%A9%EC%B2%AD%EB%B6%81%EB%8F%84-%EC%B2%AD%EC%A3%BC%EC%8B%9C-%EA%B0%95%EB%82%B4%EB%A9%B4/", "workingTime": ["-", "09:00~18:00", "09:00~18:00", "09:00~13:00", "09:00~18:00", "09:00~18:00", "09:00~13:00", "-"], "course": ["\uac00\uc815\uc758\ud559\uacfc", "\ub0b4\uacfc", "\ube44\ub1e8\uc758\ud559\uacfc", "\uc0b0\ubd80\uc778\uacfc", "\uc18c\uc544\uccad\uc18c\ub144\uacfc", "\uc2e0\uacbd\uacfc", "\uc774\ube44\uc778\ud6c4\uacfc", "\uc815\ud615\uc678\uacfc", "\ud53c\ubd80\uacfc", "\ud575\uc758\ud559\uacfc"]}, {"name": "\ud61c\uc131\uc758\uc6d0", "lat": "36.62315034263418", "lng": "127.35837839867287", "url": "/info/%ED%98%9C%EC%84%B1%EC%9D%98%EC%9B%90-%EC%B6%A9%EC%B2%AD%EB%B6%81%EB%8F%84-%EC%B2%AD%EC%A3%BC%EC%8B%9C-%EA%B0%95%EB%82%B4%EB%A9%B4/", "workingTime": ["-", "08:30~18:30", "08:30~18:30", "08:30~18:30", "08:30~18:30", "08:30~18:30", "08:30~12:30", "-"], "course": ["\uac00\uc815\uc758\ud559\uacfc", "\ub0b4\uacfc", "\ube44\ub1e8\uc758\ud559\uacfc", "\uc18c\uc544\uccad\uc18c\ub144\uacfc", "\uc678\uacfc", "\uc815\ud615\uc678\uacfc", "\ud53c\ubd80\uacfc"]}, {"name": "\uc774\ubcd1\ud638\uce58\uacfc\uc758\uc6d0", "lat": "36.62279579199687", "lng": "127.35881499517482", "url": "/info/%EC%9D%B4%EB%B3%91%ED%98%B8%EC%B9%98%EA%B3%BC%EC%9D%98%EC%9B%90-%EC%B6%A9%EC%B2%AD%EB%B6%81%EB%8F%84-%EC%B2%AD%EC%A3%BC%EC%8B%9C-%EA%B0%95%EB%82%B4%EB%A9%B4/", "workingTime": ["-", "09:00~18:00", "09:00~18:00", "09:00~18:00", "09:00~18:00", "09:00~18:00", "09:00~12:00", "-"], "course": ["\uce58\uacfc"]}, {"name": "\uc131\uc2ec\ud55c\uc758\uc6d0", "lat": "36.622662171564144", "lng": "127.35827935351891", "url": "/info/%EC%84%B1%EC%8B%AC%ED%95%9C%EC%9D%98%EC%9B%90-%EC%B6%A9%EC%B2%AD%EB%B6%81%EB%8F%84-%EC%B2%AD%EC%A3%BC%EC%8B%9C-%EA%B0%95%EB%82%B4%EB%A9%B4/", "workingTime": ["-", "09:00~18:00", "09:00~18:00", "09:00~18:00", "09:00~18:00", "09:00~18:00", "09:00~13:00", "-"], "course": ["\ud55c\ubc29\ub0b4\uacfc"]}, {"name": "\uac15\ub0b4\ubcf4\uac74\uc9c0\uc18c", "lat": "36.62138962003996", "lng": "127.35774872170379", "url": "/info/%EA%B0%95%EB%82%B4%EB%B3%B4%EA%B1%B4%EC%A7%80%EC%86%8C-%EC%B6%A9%EC%B2%AD%EB%B6%81%EB%8F%84-%EC%B2%AD%EC%A3%BC%EC%8B%9C-%EA%B0%95%EB%82%B4%EB%A9%B4/", "workingTime": ["-", "09:00~18:00", "09:00~18:00", "09:00~18:00", "09:00~18:00", "09:00~18:00", "-", "-"], "course": [""]}, {"name": "\ud0dc\uc131\ubcf4\uac74\uc9c4\ub8cc\uc18c", "lat": "36.586333481436846", "lng": "127.35047273241457", "url": "/info/%ED%83%9C%EC%84%B1%EB%B3%B4%EA%B1%B4%EC%A7%84%EB%A3%8C%EC%86%8C-%EC%B6%A9%EC%B2%AD%EB%B6%81%EB%8F%84-%EC%B2%AD%EC%A3%BC%EC%8B%9C-%EA%B0%95%EB%82%B4%EB%A9%B4/", "workingTime": ["-", "09:00~18:00", "09:00~18:00", "09:00~18:00", "09:00~18:00", "09:00~18:00", "-", "-"], "course": [""]}]