[{"name": "\uc8fc\uc0ac\ub791\ubcd1\uc6d0", "lat": "36.55290614576798", "lng": "127.53981603202008", "url": "/info/%EC%A3%BC%EC%82%AC%EB%9E%91%EB%B3%91%EC%9B%90-%EC%B6%A9%EC%B2%AD%EB%B6%81%EB%8F%84-%EC%B2%AD%EC%A3%BC%EC%8B%9C-%EA%B0%80%EB%8D%95%EB%A9%B4/", "workingTime": ["-", "09:00~18:00", "09:00~18:00", "09:00~18:00", "09:00~18:00", "09:00~18:00", "09:00~12:30", "-"], "course": ["\uac00\uc815\uc758\ud559\uacfc", "\uc815\uc2e0\uac74\uac15\uc758\ud559\uacfc"]}, {"name": "\ubcd1\uc554\ubcf4\uac74\uc9c4\ub8cc\uc18c", "lat": "36.57870306313568", "lng": "127.57981380417789", "url": "/info/%EB%B3%91%EC%95%94%EB%B3%B4%EA%B1%B4%EC%A7%84%EB%A3%8C%EC%86%8C-%EC%B6%A9%EC%B2%AD%EB%B6%81%EB%8F%84-%EC%B2%AD%EC%A3%BC%EC%8B%9C-%EA%B0%80%EB%8D%95%EB%A9%B4/", "workingTime": ["-", "09:00~18:00", "09:00~18:00", "09:00~18:00", "09:00~18:00", "09:00~18:00", "-", "-"], "course": [""]}, {"name": "\uc0c1\uc57c\ubcf4\uac74\uc9c4\ub8cc\uc18c", "lat": "36.59171575117321", "lng": "127.56313977678695", "url": "/info/%EC%83%81%EC%95%BC%EB%B3%B4%EA%B1%B4%EC%A7%84%EB%A3%8C%EC%86%8C-%EC%B6%A9%EC%B2%AD%EB%B6%81%EB%8F%84-%EC%B2%AD%EC%A3%BC%EC%8B%9C-%EA%B0%80%EB%8D%95%EB%A9%B4/", "workingTime": ["-", "09:00~18:00", "09:00~18:00", "09:00~18:00", "09:00~18:00", "09:00~18:00", "-", "-"], "course": [""]}, {"name": "\ud589\uc815\ubcf4\uac74\uc9c4\ub8cc\uc18c", "lat": "36.536858989647655", "lng": "127.53073850405082", "url": "/info/%ED%96%89%EC%A0%95%EB%B3%B4%EA%B1%B4%EC%A7%84%EB%A3%8C%EC%86%8C-%EC%B6%A9%EC%B2%AD%EB%B6%81%EB%8F%84-%EC%B2%AD%EC%A3%BC%EC%8B%9C-%EA%B0%80%EB%8D%95%EB%A9%B4/", "workingTime": ["-", "09:00~18:00", "09:00~18:00", "09:00~18:00", "09:00~18:00", "09:00~18:00", "-", "-"], "course": [""]}, {"name": "\uac00\ub355\ubcf4\uac74\uc9c0\uc18c", "lat": "36.55314213201633", "lng": "127.54931158876547", "url": "/info/%EA%B0%80%EB%8D%95%EB%B3%B4%EA%B1%B4%EC%A7%80%EC%86%8C-%EC%B6%A9%EC%B2%AD%EB%B6%81%EB%8F%84-%EC%B2%AD%EC%A3%BC%EC%8B%9C-%EA%B0%80%EB%8D%95%EB%A9%B4/", "workingTime": ["-", "09:00~18:00", "09:00~18:00", "09:00~18:00", "09:00~18:00", "09:00~18:00", "-", "-"], "course": [""]}]